{
"type": "FeatureCollection",
"name": "new-york_new-york_osm_places",
"crs": { "type": "name", "properties": { "name": "urn:ogc:def:crs:OGC:1.3:CRS84" } },
"features": [
{ "type": "Feature", "properties": { "id": 1, "osm_id": 61785451.0, "name": "New York", "type": "city", "z_order": 7, "population": 8550405 }, "geometry": { "type": "Point", "coordinates": [ -73.986613604406472, 40.730645736534939 ] } },
{ "type": "Feature", "properties": { "id": 2, "osm_id": 91625821.0, "name": "Morristown", "type": "town", "z_order": 6, "population": 19122 }, "geometry": { "type": "Point", "coordinates": [ -74.480949252195359, 40.797038372477203 ] } },
{ "type": "Feature", "properties": { "id": 3, "osm_id": 104142029.0, "name": "Serviss Junction", "type": "locality", "z_order": 1, "population": null }, "geometry": { "type": "Point", "coordinates": [ -74.399598858582877, 40.443780883934608 ] } },
{ "type": "Feature", "properties": { "id": 4, "osm_id": 104333968.0, "name": "Raritan Junction", "type": "locality", "z_order": 1, "population": null }, "geometry": { "type": "Point", "coordinates": [ -74.301967959160351, 40.523245684609179 ] } },
{ "type": "Feature", "properties": { "id": 5, "osm_id": 158797645.0, "name": "Sunnyside", "type": "neighbourhood", "z_order": 2, "population": null }, "geometry": { "type": "Point", "coordinates": [ -73.935415347261042, 40.73982417196703 ] } },
{ "type": "Feature", "properties": { "id": 6, "osm_id": 158797734.0, "name": "Rumson", "type": "village", "z_order": 5, "population": 7194 }, "geometry": { "type": "Point", "coordinates": [ -73.99902695154934, 40.372053920993693 ] } },
{ "type": "Feature", "properties": { "id": 7, "osm_id": 158797660.0, "name": "Garwood", "type": "village", "z_order": 5, "population": 4233 }, "geometry": { "type": "Point", "coordinates": [ -74.32292640513154, 40.651769177825088 ] } },
{ "type": "Feature", "properties": { "id": 8, "osm_id": 158798552.0, "name": "Phoenix", "type": "hamlet", "z_order": 4, "population": null }, "geometry": { "type": "Point", "coordinates": [ -74.312925034445868, 40.477883662824439 ] } },
{ "type": "Feature", "properties": { "id": 9, "osm_id": 158798312.0, "name": "Shippan Point", "type": "hamlet", "z_order": 4, "population": null }, "geometry": { "type": "Point", "coordinates": [ -73.523733227571014, 41.027874896228354 ] } },
{ "type": "Feature", "properties": { "id": 10, "osm_id": 158798322.0, "name": "Palmers Hill", "type": "hamlet", "z_order": 4, "population": null }, "geometry": { "type": "Point", "coordinates": [ -73.565957651540813, 41.063707951390285 ] } },
{ "type": "Feature", "properties": { "id": 11, "osm_id": 158798254.0, "name": "Hillside", "type": "town", "z_order": 6, "population": 21684 }, "geometry": { "type": "Point", "coordinates": [ -74.230145945437471, 40.701212934998239 ] } },
{ "type": "Feature", "properties": { "id": 12, "osm_id": 158798287.0, "name": "Arlington", "type": "hamlet", "z_order": 4, "population": null }, "geometry": { "type": "Point", "coordinates": [ -74.138199066013996, 40.777600739017799 ] } },
{ "type": "Feature", "properties": { "id": 13, "osm_id": 158798303.0, "name": "Eastchester Heights", "type": "neighbourhood", "z_order": 2, "population": null }, "geometry": { "type": "Point", "coordinates": [ -73.849166737072025, 40.877222172805972 ] } },
{ "type": "Feature", "properties": { "id": 14, "osm_id": 158798327.0, "name": "Pelham Manor", "type": "village", "z_order": 5, "population": 5427 }, "geometry": { "type": "Point", "coordinates": [ -73.807077848476538, 40.895377291260786 ] } },
{ "type": "Feature", "properties": { "id": 15, "osm_id": 158797964.0, "name": "Haskell", "type": "suburb", "z_order": 3, "population": null }, "geometry": { "type": "Point", "coordinates": [ -74.295982358285116, 41.028430364951674 ] } },
{ "type": "Feature", "properties": { "id": 16, "osm_id": 158798812.0, "name": "Rosedale", "type": "neighbourhood", "z_order": 2, "population": null }, "geometry": { "type": "Point", "coordinates": [ -73.735409726495917, 40.662047821867731 ] } },
{ "type": "Feature", "properties": { "id": 17, "osm_id": 158798651.0, "name": "Oakwood Beach", "type": "neighbourhood", "z_order": 2, "population": null }, "geometry": { "type": "Point", "coordinates": [ -74.114308714131752, 40.552605228312132 ] } },
{ "type": "Feature", "properties": { "id": 18, "osm_id": 158798706.0, "name": "New Monmouth", "type": "hamlet", "z_order": 4, "population": null }, "geometry": { "type": "Point", "coordinates": [ -74.103196825094628, 40.412052782032873 ] } },
{ "type": "Feature", "properties": { "id": 19, "osm_id": 158798556.0, "name": "Nyack", "type": "village", "z_order": 5, "population": 6706 }, "geometry": { "type": "Point", "coordinates": [ -73.917914603987001, 41.090651830598659 ] } },
{ "type": "Feature", "properties": { "id": 20, "osm_id": 158799252.0, "name": "Westville", "type": "hamlet", "z_order": 4, "population": null }, "geometry": { "type": "Point", "coordinates": [ -74.299593114534204, 40.844543982179516 ] } },
{ "type": "Feature", "properties": { "id": 21, "osm_id": 158798769.0, "name": "Quarry Heights", "type": "hamlet", "z_order": 4, "population": null }, "geometry": { "type": "Point", "coordinates": [ -73.75096528150047, 41.069263476813688 ] } },
{ "type": "Feature", "properties": { "id": 22, "osm_id": 158800211.0, "name": "Brooklyn Manor", "type": "neighbourhood", "z_order": 2, "population": null }, "geometry": { "type": "Point", "coordinates": [ -73.84763511190512, 40.694825170408734 ] } },
{ "type": "Feature", "properties": { "id": 23, "osm_id": 158798857.0, "name": "Clark", "type": "town", "z_order": 6, "population": 14650 }, "geometry": { "type": "Point", "coordinates": [ -74.314827977923358, 40.62339945306789 ] } },
{ "type": "Feature", "properties": { "id": 24, "osm_id": 158800183.0, "name": "Lodi", "type": "town", "z_order": 6, "population": 24310 }, "geometry": { "type": "Point", "coordinates": [ -74.083197101208427, 40.882321471239663 ] } },
{ "type": "Feature", "properties": { "id": 25, "osm_id": 158799051.0, "name": "Gillespie", "type": "hamlet", "z_order": 4, "population": null }, "geometry": { "type": "Point", "coordinates": [ -74.355982116676927, 40.452050469605581 ] } },
{ "type": "Feature", "properties": { "id": 26, "osm_id": 158799165.0, "name": "Huntington Station", "type": "hamlet", "z_order": 4, "population": null }, "geometry": { "type": "Point", "coordinates": [ -73.411509183266304, 40.853431733209561 ] } },
{ "type": "Feature", "properties": { "id": 27, "osm_id": 158799257.0, "name": "Centerville", "type": "hamlet", "z_order": 4, "population": null }, "geometry": { "type": "Point", "coordinates": [ -74.157642734443655, 40.41483029328748 ] } },
{ "type": "Feature", "properties": { "id": 28, "osm_id": 158799041.0, "name": "Morganville", "type": "hamlet", "z_order": 4, "population": null }, "geometry": { "type": "Point", "coordinates": [ -74.244311780895856, 40.376497419323073 ] } },
{ "type": "Feature", "properties": { "id": 29, "osm_id": 158800618.0, "name": "Wortendyke", "type": "hamlet", "z_order": 4, "population": null }, "geometry": { "type": "Point", "coordinates": [ -74.15014361331238, 40.997597450308859 ] } },
{ "type": "Feature", "properties": { "id": 30, "osm_id": 158800226.0, "name": "Canarsie", "type": "neighbourhood", "z_order": 2, "population": null }, "geometry": { "type": "Point", "coordinates": [ -73.900692139898311, 40.64371492324662 ] } },
{ "type": "Feature", "properties": { "id": 31, "osm_id": 158799521.0, "name": "Fenmore Park", "type": "hamlet", "z_order": 4, "population": null }, "geometry": { "type": "Point", "coordinates": [ -73.719296858749331, 40.986764594828372 ] } },
{ "type": "Feature", "properties": { "id": 32, "osm_id": 158799290.0, "name": "Flatlands", "type": "neighbourhood", "z_order": 2, "population": null }, "geometry": { "type": "Point", "coordinates": [ -73.934859710899673, 40.621215464377002 ] } },
{ "type": "Feature", "properties": { "id": 33, "osm_id": 158799747.0, "name": "Ridgewood", "type": "village", "z_order": 5, "population": 24639 }, "geometry": { "type": "Point", "coordinates": [ -74.116575767483084, 40.979186348531158 ] } },
{ "type": "Feature", "properties": { "id": 34, "osm_id": 158799457.0, "name": "Chestnut Ridge", "type": "village", "z_order": 5, "population": 7904 }, "geometry": { "type": "Point", "coordinates": [ -74.055668248977597, 41.084079664139324 ] } },
{ "type": "Feature", "properties": { "id": 35, "osm_id": 158799897.0, "name": "Noroton Heights", "type": "hamlet", "z_order": 4, "population": null }, "geometry": { "type": "Point", "coordinates": [ -73.49178803437708, 41.075096778508282 ] } },
{ "type": "Feature", "properties": { "id": 36, "osm_id": 158799489.0, "name": "Hewlett", "type": "hamlet", "z_order": 4, "population": null }, "geometry": { "type": "Point", "coordinates": [ -73.695686546252119, 40.64315903542817 ] } },
{ "type": "Feature", "properties": { "id": 37, "osm_id": 158801311.0, "name": "Alphabet City", "type": "neighbourhood", "z_order": 2, "population": null }, "geometry": { "type": "Point", "coordinates": [ -73.979583366938712, 40.72510219723307 ] } },
{ "type": "Feature", "properties": { "id": 38, "osm_id": 158800811.0, "name": "Pumptown", "type": "hamlet", "z_order": 4, "population": null }, "geometry": { "type": "Point", "coordinates": [ -74.373205335136902, 40.563159385512108 ] } },
{ "type": "Feature", "properties": { "id": 39, "osm_id": 158800968.0, "name": "Floral Park", "type": "town", "z_order": 6, "population": 15602 }, "geometry": { "type": "Point", "coordinates": [ -73.70485324701977, 40.723713232058202 ] } },
{ "type": "Feature", "properties": { "id": 40, "osm_id": 158800687.0, "name": "Stirling", "type": "hamlet", "z_order": 4, "population": null }, "geometry": { "type": "Point", "coordinates": [ -74.494876957784598, 40.672046091249229 ] } },
{ "type": "Feature", "properties": { "id": 41, "osm_id": 158801779.0, "name": "Beech Hill", "type": "hamlet", "z_order": 4, "population": null }, "geometry": { "type": "Point", "coordinates": [ -73.816522157877287, 40.986486734738179 ] } },
{ "type": "Feature", "properties": { "id": 42, "osm_id": 158800742.0, "name": "Dolphin Cove", "type": "hamlet", "z_order": 4, "population": null }, "geometry": { "type": "Point", "coordinates": [ -73.549289817985127, 41.025930462330166 ] } },
{ "type": "Feature", "properties": { "id": 43, "osm_id": 158801775.0, "name": "East Elmhurst", "type": "neighbourhood", "z_order": 2, "population": null }, "geometry": { "type": "Point", "coordinates": [ -73.865135855179162, 40.761212274294905 ] } },
{ "type": "Feature", "properties": { "id": 44, "osm_id": 158800633.0, "name": "Montclair", "type": "town", "z_order": 6, "population": 37669 }, "geometry": { "type": "Point", "coordinates": [ -74.209034445914341, 40.82593313964918 ] } },
{ "type": "Feature", "properties": { "id": 45, "osm_id": 158801321.0, "name": "Tribeca", "type": "neighbourhood", "z_order": 2, "population": null }, "geometry": { "type": "Point", "coordinates": [ -74.009306349963282, 40.715380195380192 ] } },
{ "type": "Feature", "properties": { "id": 46, "osm_id": 158800794.0, "name": "Radburn", "type": "hamlet", "z_order": 4, "population": null }, "geometry": { "type": "Point", "coordinates": [ -74.116531343396275, 40.942598335350368 ] } },
{ "type": "Feature", "properties": { "id": 47, "osm_id": 158800655.0, "name": "Howard Beach", "type": "neighbourhood", "z_order": 2, "population": null }, "geometry": { "type": "Point", "coordinates": [ -73.83624594951101, 40.657881429257287 ] } },
{ "type": "Feature", "properties": { "id": 48, "osm_id": 158801369.0, "name": "Saddle Brook", "type": "town", "z_order": 6, "population": 13625 }, "geometry": { "type": "Point", "coordinates": [ -74.092641829704348, 40.898987963690843 ] } },
{ "type": "Feature", "properties": { "id": 49, "osm_id": 158801886.0, "name": "Parsippany", "type": "hamlet", "z_order": 4, "population": null }, "geometry": { "type": "Point", "coordinates": [ -74.42598668233471, 40.85787715937667 ] } },
{ "type": "Feature", "properties": { "id": 50, "osm_id": 158803122.0, "name": "Kensington", "type": "village", "z_order": 5, "population": 1185 }, "geometry": { "type": "Point", "coordinates": [ -73.722075627289414, 40.793434489388716 ] } },
{ "type": "Feature", "properties": { "id": 51, "osm_id": 158801581.0, "name": "East Newark", "type": "village", "z_order": 5, "population": 2217 }, "geometry": { "type": "Point", "coordinates": [ -74.161152572578544, 40.75010759369448 ] } },
{ "type": "Feature", "properties": { "id": 52, "osm_id": 158801274.0, "name": "Port Reading", "type": "hamlet", "z_order": 4, "population": null }, "geometry": { "type": "Point", "coordinates": [ -74.260423642814061, 40.565382266233712 ] } },
{ "type": "Feature", "properties": { "id": 53, "osm_id": 158803145.0, "name": "Spotswood Manor", "type": "hamlet", "z_order": 4, "population": null }, "geometry": { "type": "Point", "coordinates": [ -74.382927253170763, 40.377885462488621 ] } },
{ "type": "Feature", "properties": { "id": 54, "osm_id": 158802019.0, "name": "Clinton Hill", "type": "neighbourhood", "z_order": 2, "population": null }, "geometry": { "type": "Point", "coordinates": [ -73.965277805154415, 40.689722183937675 ] } },
{ "type": "Feature", "properties": { "id": 55, "osm_id": 158801600.0, "name": "Roselle Park", "type": "town", "z_order": 6, "population": 21158 }, "geometry": { "type": "Point", "coordinates": [ -74.26320224371608, 40.664269193846792 ] } },
{ "type": "Feature", "properties": { "id": 56, "osm_id": 158802280.0, "name": "Inwood", "type": "village", "z_order": 5, "population": null }, "geometry": { "type": "Point", "coordinates": [ -73.746798972709044, 40.622048625552452 ] } },
{ "type": "Feature", "properties": { "id": 57, "osm_id": 158801691.0, "name": "Berdines Corners", "type": "hamlet", "z_order": 4, "population": null }, "geometry": { "type": "Point", "coordinates": [ -74.453485527352186, 40.467327242510606 ] } },
{ "type": "Feature", "properties": { "id": 58, "osm_id": 158802637.0, "name": "North White Plains", "type": "hamlet", "z_order": 4, "population": null }, "geometry": { "type": "Point", "coordinates": [ -73.766798864233309, 41.055096970803049 ] } },
{ "type": "Feature", "properties": { "id": 59, "osm_id": 158801746.0, "name": "Great Neck Plaza", "type": "village", "z_order": 5, "population": 6867 }, "geometry": { "type": "Point", "coordinates": [ -73.726520215266206, 40.786768026518672 ] } },
{ "type": "Feature", "properties": { "id": 60, "osm_id": 158802956.0, "name": "Greenhaven", "type": "hamlet", "z_order": 4, "population": null }, "geometry": { "type": "Point", "coordinates": [ -73.706796507451514, 40.950931791123537 ] } },
{ "type": "Feature", "properties": { "id": 61, "osm_id": 158801755.0, "name": "Blauvelt", "type": "hamlet", "z_order": 4, "population": null }, "geometry": { "type": "Point", "coordinates": [ -73.957637868049815, 41.063429839842996 ] } },
{ "type": "Feature", "properties": { "id": 62, "osm_id": 158803559.0, "name": "Westwood", "type": "town", "z_order": 6, "population": 10934 }, "geometry": { "type": "Point", "coordinates": [ -74.032639556741586, 40.991208679890974 ] } },
{ "type": "Feature", "properties": { "id": 63, "osm_id": 158803061.0, "name": "East Williston", "type": "village", "z_order": 5, "population": 2504 }, "geometry": { "type": "Point", "coordinates": [ -73.634850944475843, 40.75843426012608 ] } },
{ "type": "Feature", "properties": { "id": 64, "osm_id": 158803643.0, "name": "Kinnelon", "type": "village", "z_order": 5, "population": 9681 }, "geometry": { "type": "Point", "coordinates": [ -74.367096017370812, 41.001764345833521 ] } },
{ "type": "Feature", "properties": { "id": 65, "osm_id": 158803515.0, "name": "Port Monmouth", "type": "hamlet", "z_order": 4, "population": null }, "geometry": { "type": "Point", "coordinates": [ -74.098474544665692, 40.430107988201854 ] } },
{ "type": "Feature", "properties": { "id": 66, "osm_id": 158803533.0, "name": "North Lindenhurst", "type": "hamlet", "z_order": 4, "population": null }, "geometry": { "type": "Point", "coordinates": [ -73.38151026798927, 40.71426624044841 ] } },
{ "type": "Feature", "properties": { "id": 67, "osm_id": 158803567.0, "name": "Parlin", "type": "hamlet", "z_order": 4, "population": null }, "geometry": { "type": "Point", "coordinates": [ -74.338203764769773, 40.462050331548681 ] } },
{ "type": "Feature", "properties": { "id": 68, "osm_id": 158803169.0, "name": "Sunny Brae", "type": "hamlet", "z_order": 4, "population": null }, "geometry": { "type": "Point", "coordinates": [ -73.82374492766094, 40.930932151056396 ] } },
{ "type": "Feature", "properties": { "id": 69, "osm_id": 158803960.0, "name": "Riverside", "type": "hamlet", "z_order": 4, "population": null }, "geometry": { "type": "Point", "coordinates": [ -74.151532578487263, 40.935653928571128 ] } },
{ "type": "Feature", "properties": { "id": 70, "osm_id": 158804229.0, "name": "Florham Park", "type": "town", "z_order": 6, "population": 12605 }, "geometry": { "type": "Point", "coordinates": [ -74.388207265436847, 40.787877958136932 ] } },
{ "type": "Feature", "properties": { "id": 71, "osm_id": 158803671.0, "name": "Crestwood Gardens", "type": "hamlet", "z_order": 4, "population": null }, "geometry": { "type": "Point", "coordinates": [ -73.820411277130773, 40.968153836117068 ] } },
{ "type": "Feature", "properties": { "id": 72, "osm_id": 158803599.0, "name": "Point Lookout", "type": "suburb", "z_order": 3, "population": null }, "geometry": { "type": "Point", "coordinates": [ -73.580684068683453, 40.592325474889805 ] } },
{ "type": "Feature", "properties": { "id": 73, "osm_id": 158803995.0, "name": "Massapequa Park", "type": "town", "z_order": 6, "population": 17115 }, "geometry": { "type": "Point", "coordinates": [ -73.455124164972588, 40.680378457374985 ] } },
{ "type": "Feature", "properties": { "id": 74, "osm_id": 158803745.0, "name": "Port Washington North", "type": "village", "z_order": 5, "population": 3270 }, "geometry": { "type": "Point", "coordinates": [ -73.701796953665607, 40.844822345183928 ] } },
{ "type": "Feature", "properties": { "id": 75, "osm_id": 158804493.0, "name": "Lawrence", "type": "village", "z_order": 5, "population": 6442 }, "geometry": { "type": "Point", "coordinates": [ -73.729576340982305, 40.615659855134567 ] } },
{ "type": "Feature", "properties": { "id": 76, "osm_id": 158804072.0, "name": "Baldwin", "type": "hamlet", "z_order": 4, "population": null }, "geometry": { "type": "Point", "coordinates": [ -73.609295359890112, 40.656491290615946 ] } },
{ "type": "Feature", "properties": { "id": 77, "osm_id": 158804489.0, "name": "Ardsley-on-Hudson", "type": "hamlet", "z_order": 4, "population": null }, "geometry": { "type": "Point", "coordinates": [ -73.870412766141087, 41.025097217335684 ] } },
{ "type": "Feature", "properties": { "id": 78, "osm_id": 158803763.0, "name": "East Garden City", "type": "hamlet", "z_order": 4, "population": null }, "geometry": { "type": "Point", "coordinates": [ -73.598072159178841, 40.730792587478533 ] } },
{ "type": "Feature", "properties": { "id": 79, "osm_id": 158803921.0, "name": "Piscataway", "type": "town", "z_order": 6, "population": 52658 }, "geometry": { "type": "Point", "coordinates": [ -74.466040863934822, 40.546255266105931 ] } },
{ "type": "Feature", "properties": { "id": 80, "osm_id": 158804308.0, "name": "Sands Point", "type": "village", "z_order": 5, "population": 2833 }, "geometry": { "type": "Point", "coordinates": [ -73.718742060578279, 40.8517668357822 ] } },
{ "type": "Feature", "properties": { "id": 81, "osm_id": 158804240.0, "name": "Morrell Corners", "type": "hamlet", "z_order": 4, "population": null }, "geometry": { "type": "Point", "coordinates": [ -74.190421340270134, 40.411219034124201 ] } },
{ "type": "Feature", "properties": { "id": 82, "osm_id": 158804679.0, "name": "Harbor Hills", "type": "hamlet", "z_order": 4, "population": null }, "geometry": { "type": "Point", "coordinates": [ -73.746520861161756, 40.790934754405271 ] } },
{ "type": "Feature", "properties": { "id": 83, "osm_id": 158805005.0, "name": "Salisbury", "type": "village", "z_order": 5, "population": 12093 }, "geometry": { "type": "Point", "coordinates": [ -73.56012661296009, 40.745655964919052 ] } },
{ "type": "Feature", "properties": { "id": 84, "osm_id": 158805074.0, "name": "Huguenot Park", "type": "hamlet", "z_order": 4, "population": null }, "geometry": { "type": "Point", "coordinates": [ -73.794299637088514, 40.922876890649547 ] } },
{ "type": "Feature", "properties": { "id": 85, "osm_id": 158804312.0, "name": "Sewaren", "type": "hamlet", "z_order": 4, "population": null }, "geometry": { "type": "Point", "coordinates": [ -74.258756817548971, 40.552049089036558 ] } },
{ "type": "Feature", "properties": { "id": 86, "osm_id": 158804728.0, "name": "Hackensack", "type": "town", "z_order": 6, "population": 43671 }, "geometry": { "type": "Point", "coordinates": [ -74.043473669507534, 40.88593256276485 ] } },
{ "type": "Feature", "properties": { "id": 87, "osm_id": 158804744.0, "name": "Elmont", "type": "hamlet", "z_order": 4, "population": null }, "geometry": { "type": "Point", "coordinates": [ -73.712909010340795, 40.700935996917394 ] } },
{ "type": "Feature", "properties": { "id": 88, "osm_id": 158804314.0, "name": "Nepperhan", "type": "hamlet", "z_order": 4, "population": null }, "geometry": { "type": "Point", "coordinates": [ -73.866523730706632, 40.955653987733456 ] } },
{ "type": "Feature", "properties": { "id": 89, "osm_id": 158804777.0, "name": "Possumtown", "type": "hamlet", "z_order": 4, "population": null }, "geometry": { "type": "Point", "coordinates": [ -74.491542804340241, 40.554547650553559 ] } },
{ "type": "Feature", "properties": { "id": 90, "osm_id": 158804785.0, "name": "Darlington", "type": "hamlet", "z_order": 4, "population": null }, "geometry": { "type": "Point", "coordinates": [ -74.182971672367572, 41.079393174436944 ] } },
{ "type": "Feature", "properties": { "id": 91, "osm_id": 158804445.0, "name": "Athenia", "type": "hamlet", "z_order": 4, "population": null }, "geometry": { "type": "Point", "coordinates": [ -74.154310508837028, 40.866766083873159 ] } },
{ "type": "Feature", "properties": { "id": 92, "osm_id": 158804534.0, "name": "Hamilton Park", "type": "neighbourhood", "z_order": 2, "population": null }, "geometry": { "type": "Point", "coordinates": [ -74.090071854372312, 40.641726316718717 ] } },
{ "type": "Feature", "properties": { "id": 93, "osm_id": 158805213.0, "name": "Brookdale", "type": "hamlet", "z_order": 4, "population": null }, "geometry": { "type": "Point", "coordinates": [ -74.182922554414986, 40.833710959060994 ] } },
{ "type": "Feature", "properties": { "id": 94, "osm_id": 158804245.0, "name": "Little Neck", "type": "neighbourhood", "z_order": 2, "population": null }, "geometry": { "type": "Point", "coordinates": [ -73.738187405388587, 40.762046273660644 ] } },
{ "type": "Feature", "properties": { "id": 95, "osm_id": 158805321.0, "name": "Pleasantville", "type": "hamlet", "z_order": 4, "population": null }, "geometry": { "type": "Point", "coordinates": [ -74.487654858553199, 40.733156284173475 ] } },
{ "type": "Feature", "properties": { "id": 96, "osm_id": 158804278.0, "name": "South Beach", "type": "neighbourhood", "z_order": 2, "population": null }, "geometry": { "type": "Point", "coordinates": [ -74.066807630657124, 40.590382465915155 ] } },
{ "type": "Feature", "properties": { "id": 97, "osm_id": 158805148.0, "name": null, "type": "neighbourhood", "z_order": 2, "population": null }, "geometry": { "type": "Point", "coordinates": [ -73.993889012542041, 40.765277748791135 ] } },
{ "type": "Feature", "properties": { "id": 98, "osm_id": 158805215.0, "name": "Ridgefield", "type": "town", "z_order": 6, "population": 10996 }, "geometry": { "type": "Point", "coordinates": [ -74.008750545963849, 40.834266846879444 ] } },
{ "type": "Feature", "properties": { "id": 99, "osm_id": 158804274.0, "name": "Williston Park", "type": "village", "z_order": 5, "population": 7051 }, "geometry": { "type": "Point", "coordinates": [ -73.644851309333134, 40.756489993865955 ] } },
{ "type": "Feature", "properties": { "id": 100, "osm_id": 158805299.0, "name": "Wincoma", "type": "hamlet", "z_order": 4, "population": null }, "geometry": { "type": "Point", "coordinates": [ -73.425675437819862, 40.903431378201191 ] } },
{ "type": "Feature", "properties": { "id": 101, "osm_id": 158805428.0, "name": "Colonial Heights", "type": "hamlet", "z_order": 4, "population": null }, "geometry": { "type": "Point", "coordinates": [ -73.841245251839823, 40.959820547981963 ] } },
{ "type": "Feature", "properties": { "id": 102, "osm_id": 158805527.0, "name": "Edgewater", "type": "village", "z_order": 5, "population": 9628 }, "geometry": { "type": "Point", "coordinates": [ -73.975694080047177, 40.827044747648046 ] } },
{ "type": "Feature", "properties": { "id": 103, "osm_id": 158805374.0, "name": "Morris Heights", "type": "neighbourhood", "z_order": 2, "population": null }, "geometry": { "type": "Point", "coordinates": [ -73.919859037885189, 40.849822234245948 ] } },
{ "type": "Feature", "properties": { "id": 104, "osm_id": 158805401.0, "name": "Perth Amboy Junction", "type": "hamlet", "z_order": 4, "population": null }, "geometry": { "type": "Point", "coordinates": [ -74.285424764504853, 40.598159279498589 ] } },
{ "type": "Feature", "properties": { "id": 105, "osm_id": 158805470.0, "name": "Apshawa", "type": "suburb", "z_order": 3, "population": null }, "geometry": { "type": "Point", "coordinates": [ -74.362929205665196, 41.017597341833124 ] } },
{ "type": "Feature", "properties": { "id": 106, "osm_id": 158805894.0, "name": "Westbury", "type": "town", "z_order": 6, "population": 14582 }, "geometry": { "type": "Point", "coordinates": [ -73.587627301996264, 40.75565607831922 ] } },
{ "type": "Feature", "properties": { "id": 107, "osm_id": 158805413.0, "name": "Kenilworth", "type": "village", "z_order": 5, "population": 7741 }, "geometry": { "type": "Point", "coordinates": [ -74.289262083596725, 40.676022466114745 ] } },
{ "type": "Feature", "properties": { "id": 108, "osm_id": 158806065.0, "name": "Taylortown", "type": "hamlet", "z_order": 4, "population": null }, "geometry": { "type": "Point", "coordinates": [ -74.39459687404505, 40.93787622255951 ] } },
{ "type": "Feature", "properties": { "id": 109, "osm_id": 158805474.0, "name": "Barnum Island", "type": "hamlet", "z_order": 4, "population": null }, "geometry": { "type": "Point", "coordinates": [ -73.644018734890906, 40.604547966097442 ] } },
{ "type": "Feature", "properties": { "id": 110, "osm_id": 158805801.0, "name": "New Brighton", "type": "neighbourhood", "z_order": 2, "population": null }, "geometry": { "type": "Point", "coordinates": [ -74.092919522156478, 40.642325790433688 ] } },
{ "type": "Feature", "properties": { "id": 111, "osm_id": 158805571.0, "name": "Atlantic Beach Estates", "type": "hamlet", "z_order": 4, "population": null }, "geometry": { "type": "Point", "coordinates": [ -73.711388952200281, 40.586666684419299 ] } },
{ "type": "Feature", "properties": { "id": 112, "osm_id": 158805672.0, "name": "Waldwick", "type": "village", "z_order": 5, "population": 9621 }, "geometry": { "type": "Point", "coordinates": [ -74.117920308571158, 41.010652851234823 ] } },
{ "type": "Feature", "properties": { "id": 113, "osm_id": 158805741.0, "name": "Singac", "type": "neighbourhood", "z_order": 2, "population": null }, "geometry": { "type": "Point", "coordinates": [ -74.24155413475178, 40.887900382172916 ] } },
{ "type": "Feature", "properties": { "id": 114, "osm_id": 158805806.0, "name": "Lloyd Harbor", "type": "village", "z_order": 5, "population": 3654 }, "geometry": { "type": "Point", "coordinates": [ -73.459843260278305, 40.903431462020222 ] } },
{ "type": "Feature", "properties": { "id": 115, "osm_id": 158805613.0, "name": "Sea Cliff", "type": "village", "z_order": 5, "population": 4958 }, "geometry": { "type": "Point", "coordinates": [ -73.644850554961849, 40.84898865397534 ] } },
{ "type": "Feature", "properties": { "id": 116, "osm_id": 158805366.0, "name": "Northfield", "type": "hamlet", "z_order": 4, "population": null }, "geometry": { "type": "Point", "coordinates": [ -74.324593817129852, 40.774267088487647 ] } },
{ "type": "Feature", "properties": { "id": 117, "osm_id": 158805819.0, "name": "East Hanover", "type": "town", "z_order": 6, "population": 11633 }, "geometry": { "type": "Point", "coordinates": [ -74.364873136649194, 40.820099754135583 ] } },
{ "type": "Feature", "properties": { "id": 118, "osm_id": 158805869.0, "name": "Morrisania", "type": "neighbourhood", "z_order": 2, "population": null }, "geometry": { "type": "Point", "coordinates": [ -73.906525357773859, 40.829267125455488 ] } },
{ "type": "Feature", "properties": { "id": 119, "osm_id": 158806088.0, "name": "Riverdale", "type": "village", "z_order": 5, "population": 2676 }, "geometry": { "type": "Point", "coordinates": [ -74.303482401425754, 40.993986442602676 ] } },
{ "type": "Feature", "properties": { "id": 120, "osm_id": 158806338.0, "name": "Woodsburgh", "type": "village", "z_order": 5, "population": 814 }, "geometry": { "type": "Point", "coordinates": [ -73.708464673821112, 40.623992724174514 ] } },
{ "type": "Feature", "properties": { "id": 121, "osm_id": 158806204.0, "name": "Seaside", "type": "neighbourhood", "z_order": 2, "population": null }, "geometry": { "type": "Point", "coordinates": [ -74.178888931150794, 40.535277738976674 ] } },
{ "type": "Feature", "properties": { "id": 122, "osm_id": 158806324.0, "name": "Glen Head", "type": "hamlet", "z_order": 4, "population": null }, "geometry": { "type": "Point", "coordinates": [ -73.623738803981624, 40.835377532868961 ] } },
{ "type": "Feature", "properties": { "id": 123, "osm_id": 158806162.0, "name": "West Hills", "type": "hamlet", "z_order": 4, "population": null }, "geometry": { "type": "Point", "coordinates": [ -73.432343828527621, 40.816209880510797 ] } },
{ "type": "Feature", "properties": { "id": 124, "osm_id": 158806580.0, "name": "Copiague", "type": "suburb", "z_order": 3, "population": null }, "geometry": { "type": "Point", "coordinates": [ -73.400810270598541, 40.684053754278523 ] } },
{ "type": "Feature", "properties": { "id": 125, "osm_id": 158806856.0, "name": "Bonnie Crest", "type": "hamlet", "z_order": 4, "population": null }, "geometry": { "type": "Point", "coordinates": [ -73.78596592985825, 40.959820547981963 ] } },
{ "type": "Feature", "properties": { "id": 126, "osm_id": 158806351.0, "name": "Verona", "type": "town", "z_order": 6, "population": 12937 }, "geometry": { "type": "Point", "coordinates": [ -74.240146645570874, 40.829821923626525 ] } },
{ "type": "Feature", "properties": { "id": 127, "osm_id": 158806637.0, "name": "College Point", "type": "neighbourhood", "z_order": 2, "population": null }, "geometry": { "type": "Point", "coordinates": [ -73.845968202821012, 40.787601355332185 ] } },
{ "type": "Feature", "properties": { "id": 128, "osm_id": 158806741.0, "name": "Linden", "type": "town", "z_order": 6, "population": 39874 }, "geometry": { "type": "Point", "coordinates": [ -74.244590227719286, 40.622047787362135 ] } },
{ "type": "Feature", "properties": { "id": 129, "osm_id": 158806391.0, "name": "Amity Harbor", "type": "hamlet", "z_order": 4, "population": null }, "geometry": { "type": "Point", "coordinates": [ -73.398178017725925, 40.663433853376517 ] } },
{ "type": "Feature", "properties": { "id": 130, "osm_id": 158806452.0, "name": "Wyandanch", "type": "hamlet", "z_order": 4, "population": null }, "geometry": { "type": "Point", "coordinates": [ -73.360398014094855, 40.753987744311587 ] } },
{ "type": "Feature", "properties": { "id": 131, "osm_id": 158807279.0, "name": "Waterloo", "type": "hamlet", "z_order": 4, "population": null }, "geometry": { "type": "Point", "coordinates": [ -73.98708215279386, 40.356220924994091 ] } },
{ "type": "Feature", "properties": { "id": 132, "osm_id": 158806380.0, "name": "Bayville", "type": "town", "z_order": 6, "population": 7082 }, "geometry": { "type": "Point", "coordinates": [ -73.562068951382486, 40.910654064165783 ] } },
{ "type": "Feature", "properties": { "id": 133, "osm_id": 158807229.0, "name": "Parkchester", "type": "neighbourhood", "z_order": 2, "population": null }, "geometry": { "type": "Point", "coordinates": [ -73.860412820378954, 40.83898929494643 ] } },
{ "type": "Feature", "properties": { "id": 134, "osm_id": 158807013.0, "name": "Glenville", "type": "hamlet", "z_order": 4, "population": null }, "geometry": { "type": "Point", "coordinates": [ -73.65985013832892, 41.035374939368978 ] } },
{ "type": "Feature", "properties": { "id": 135, "osm_id": 158806901.0, "name": "Mount Pleasant", "type": "town", "z_order": 6, "population": 44638 }, "geometry": { "type": "Point", "coordinates": [ -73.793435546690361, 41.096297461481157 ] } },
{ "type": "Feature", "properties": { "id": 136, "osm_id": 158807087.0, "name": "Shore Acres", "type": "hamlet", "z_order": 4, "population": null }, "geometry": { "type": "Point", "coordinates": [ -73.724019474454394, 40.94704292332716 ] } },
{ "type": "Feature", "properties": { "id": 137, "osm_id": 158806960.0, "name": "Park Village", "type": "hamlet", "z_order": 4, "population": null }, "geometry": { "type": "Point", "coordinates": [ -74.290703016571285, 40.65149156919199 ] } },
{ "type": "Feature", "properties": { "id": 138, "osm_id": 158807109.0, "name": "Pleasant Plains", "type": "hamlet", "z_order": 4, "population": null }, "geometry": { "type": "Point", "coordinates": [ -74.497099419411057, 40.69760117292077 ] } },
{ "type": "Feature", "properties": { "id": 139, "osm_id": 158806938.0, "name": "Morris Plains", "type": "village", "z_order": 5, "population": 5601 }, "geometry": { "type": "Point", "coordinates": [ -74.480988479502216, 40.821766495581642 ] } },
{ "type": "Feature", "properties": { "id": 140, "osm_id": 158806964.0, "name": "Sayre Woods", "type": "hamlet", "z_order": 4, "population": null }, "geometry": { "type": "Point", "coordinates": [ -74.291257730923306, 40.461217421830327 ] } },
{ "type": "Feature", "properties": { "id": 141, "osm_id": 158807303.0, "name": "Cedar Manor Houses", "type": "neighbourhood", "z_order": 2, "population": null }, "geometry": { "type": "Point", "coordinates": [ -73.784722223065359, 40.684999987327785 ] } },
{ "type": "Feature", "properties": { "id": 142, "osm_id": 158807294.0, "name": "New Bridge", "type": "hamlet", "z_order": 4, "population": null }, "geometry": { "type": "Point", "coordinates": [ -74.028195220221889, 40.916765561226697 ] } },
{ "type": "Feature", "properties": { "id": 143, "osm_id": 158807121.0, "name": "North Centerville", "type": "hamlet", "z_order": 4, "population": null }, "geometry": { "type": "Point", "coordinates": [ -74.160698357245565, 40.425107763863679 ] } },
{ "type": "Feature", "properties": { "id": 144, "osm_id": 158807290.0, "name": "Huguenot", "type": "neighbourhood", "z_order": 2, "population": null }, "geometry": { "type": "Point", "coordinates": [ -74.194588403432846, 40.537327449578726 ] } },
{ "type": "Feature", "properties": { "id": 145, "osm_id": 158807617.0, "name": "Englewood Cliffs", "type": "village", "z_order": 5, "population": 5793 }, "geometry": { "type": "Point", "coordinates": [ -73.952359783621461, 40.885377261679622 ] } },
{ "type": "Feature", "properties": { "id": 146, "osm_id": 158807621.0, "name": "Glenfield", "type": "hamlet", "z_order": 4, "population": null }, "geometry": { "type": "Point", "coordinates": [ -74.405152120892424, 40.743156229935607 ] } },
{ "type": "Feature", "properties": { "id": 147, "osm_id": 158807148.0, "name": "Bellaire", "type": "neighbourhood", "z_order": 2, "population": null }, "geometry": { "type": "Point", "coordinates": [ -73.754021239578506, 40.713991649300453 ] } },
{ "type": "Feature", "properties": { "id": 148, "osm_id": 158807160.0, "name": "Little Falls", "type": "town", "z_order": 6, "population": 11829 }, "geometry": { "type": "Point", "coordinates": [ -74.208201117100828, 40.868988126404446 ] } },
{ "type": "Feature", "properties": { "id": 149, "osm_id": 158807379.0, "name": "Madison Park", "type": "hamlet", "z_order": 4, "population": null }, "geometry": { "type": "Point", "coordinates": [ -74.307924810107707, 40.451495336158416 ] } },
{ "type": "Feature", "properties": { "id": 150, "osm_id": 158807298.0, "name": "Newfoundland", "type": "hamlet", "z_order": 4, "population": null }, "geometry": { "type": "Point", "coordinates": [ -74.435154640387836, 41.046486074034846 ] } },
{ "type": "Feature", "properties": { "id": 151, "osm_id": 158807393.0, "name": "Towaco", "type": "hamlet", "z_order": 4, "population": null }, "geometry": { "type": "Point", "coordinates": [ -74.34542821093406, 40.922042975102812 ] } },
{ "type": "Feature", "properties": { "id": 152, "osm_id": 158807468.0, "name": "North Wantagh", "type": "hamlet", "z_order": 4, "population": null }, "geometry": { "type": "Point", "coordinates": [ -73.507625724242473, 40.693434025939041 ] } },
{ "type": "Feature", "properties": { "id": 153, "osm_id": 158807473.0, "name": "Glenbrook", "type": "hamlet", "z_order": 4, "population": null }, "geometry": { "type": "Point", "coordinates": [ -73.526233716925731, 41.064818972655956 ] } },
{ "type": "Feature", "properties": { "id": 154, "osm_id": 158807613.0, "name": "Vernon Valley", "type": "hamlet", "z_order": 4, "population": null }, "geometry": { "type": "Point", "coordinates": [ -73.329005607415212, 40.899542342766722 ] } },
{ "type": "Feature", "properties": { "id": 155, "osm_id": 158807398.0, "name": "Packanack Lake", "type": "suburb", "z_order": 3, "population": null }, "geometry": { "type": "Point", "coordinates": [ -74.256454224928177, 40.937079438843853 ] } },
{ "type": "Feature", "properties": { "id": 156, "osm_id": 158807417.0, "name": "White Birches", "type": "hamlet", "z_order": 4, "population": null }, "geometry": { "type": "Point", "coordinates": [ -73.782632530785179, 40.967876059845906 ] } },
{ "type": "Feature", "properties": { "id": 157, "osm_id": 158808031.0, "name": "West Keansburg", "type": "hamlet", "z_order": 4, "population": null }, "geometry": { "type": "Point", "coordinates": [ -74.144031278061163, 40.442607417490308 ] } },
{ "type": "Feature", "properties": { "id": 158, "osm_id": 158807954.0, "name": "Syosset", "type": "hamlet", "z_order": 4, "population": null }, "geometry": { "type": "Point", "coordinates": [ -73.502068019524245, 40.826210077730025 ] } },
{ "type": "Feature", "properties": { "id": 159, "osm_id": 158807966.0, "name": "Cresskill", "type": "village", "z_order": 5, "population": 8437 }, "geometry": { "type": "Point", "coordinates": [ -73.959304106581683, 40.941487397903757 ] } },
{ "type": "Feature", "properties": { "id": 160, "osm_id": 158808015.0, "name": "Bay Shore", "type": "hamlet", "z_order": 4, "population": null }, "geometry": { "type": "Point", "coordinates": [ -73.24539461451684, 40.725098593014707 ] } },
{ "type": "Feature", "properties": { "id": 161, "osm_id": 158808529.0, "name": "Roy Reuther Houses", "type": "neighbourhood", "z_order": 2, "population": null }, "geometry": { "type": "Point", "coordinates": [ -73.742222202119208, 40.595555525096756 ] } },
{ "type": "Feature", "properties": { "id": 162, "osm_id": 158807949.0, "name": "Levittown", "type": "hamlet", "z_order": 4, "population": null }, "geometry": { "type": "Point", "coordinates": [ -73.514292103293457, 40.725933598208854 ] } },
{ "type": "Feature", "properties": { "id": 163, "osm_id": 158808525.0, "name": "Great Kills", "type": "neighbourhood", "z_order": 2, "population": null }, "geometry": { "type": "Point", "coordinates": [ -74.151531824115978, 40.554271718301095 ] } },
{ "type": "Feature", "properties": { "id": 164, "osm_id": 158808490.0, "name": "Cypress Hills", "type": "neighbourhood", "z_order": 2, "population": null }, "geometry": { "type": "Point", "coordinates": [ -73.891247411402389, 40.677047656691911 ] } },
{ "type": "Feature", "properties": { "id": 165, "osm_id": 158808307.0, "name": "Everett", "type": "hamlet", "z_order": 4, "population": null }, "geometry": { "type": "Point", "coordinates": [ -74.146531180682658, 40.354276072000744 ] } },
{ "type": "Feature", "properties": { "id": 166, "osm_id": 158808506.0, "name": "Crawford Corners", "type": "hamlet", "z_order": 4, "population": null }, "geometry": { "type": "Point", "coordinates": [ -74.188754766462139, 40.38483079127721 ] } },
{ "type": "Feature", "properties": { "id": 167, "osm_id": 158808470.0, "name": "Murdock Woods", "type": "hamlet", "z_order": 4, "population": null }, "geometry": { "type": "Point", "coordinates": [ -73.759576345906751, 40.963153947055048 ] } },
{ "type": "Feature", "properties": { "id": 168, "osm_id": 158808044.0, "name": "Orange", "type": "town", "z_order": 6, "population": 30134 }, "geometry": { "type": "Point", "coordinates": [ -74.232646350973155, 40.770656164600496 ] } },
{ "type": "Feature", "properties": { "id": 169, "osm_id": 158808510.0, "name": "Hollis", "type": "neighbourhood", "z_order": 2, "population": null }, "geometry": { "type": "Point", "coordinates": [ -73.767077227237706, 40.713436096758102 ] } },
{ "type": "Feature", "properties": { "id": 170, "osm_id": 158808479.0, "name": "Oakwood", "type": "neighbourhood", "z_order": 2, "population": null }, "geometry": { "type": "Point", "coordinates": [ -74.115975455577811, 40.563993971611097 ] } },
{ "type": "Feature", "properties": { "id": 171, "osm_id": 158808643.0, "name": "Bird Grove", "type": "hamlet", "z_order": 4, "population": null }, "geometry": { "type": "Point", "coordinates": [ -73.755132260844164, 40.832322832076414 ] } },
{ "type": "Feature", "properties": { "id": 172, "osm_id": 158808107.0, "name": "Maplewood", "type": "town", "z_order": 6, "population": 22759 }, "geometry": { "type": "Point", "coordinates": [ -74.273480803939691, 40.731212269370445 ] } },
{ "type": "Feature", "properties": { "id": 173, "osm_id": 158808205.0, "name": "Bayway", "type": "hamlet", "z_order": 4, "population": null }, "geometry": { "type": "Point", "coordinates": [ -74.21236725825419, 40.638992056084476 ] } },
{ "type": "Feature", "properties": { "id": 174, "osm_id": 158808695.0, "name": "Rockaway Valley", "type": "hamlet", "z_order": 4, "population": null }, "geometry": { "type": "Point", "coordinates": [ -74.444320838241296, 40.928154136887599 ] } },
{ "type": "Feature", "properties": { "id": 175, "osm_id": 158808242.0, "name": "South Old Bridge", "type": "hamlet", "z_order": 4, "population": null }, "geometry": { "type": "Point", "coordinates": [ -74.354315375230868, 40.408162740770052 ] } },
{ "type": "Feature", "properties": { "id": 176, "osm_id": 158808613.0, "name": "Bergen Beach", "type": "neighbourhood", "z_order": 2, "population": null }, "geometry": { "type": "Point", "coordinates": [ -73.906803301683084, 40.620382135563489 ] } },
{ "type": "Feature", "properties": { "id": 177, "osm_id": 158809081.0, "name": "Hammels", "type": "neighbourhood", "z_order": 2, "population": null }, "geometry": { "type": "Point", "coordinates": [ -73.811151118142732, 40.588821923182309 ] } },
{ "type": "Feature", "properties": { "id": 178, "osm_id": 158808636.0, "name": "Bay Park", "type": "hamlet", "z_order": 4, "population": null }, "geometry": { "type": "Point", "coordinates": [ -73.670408151204342, 40.633158922027974 ] } },
{ "type": "Feature", "properties": { "id": 179, "osm_id": 158809095.0, "name": "West Gilgo Beach", "type": "hamlet", "z_order": 4, "population": null }, "geometry": { "type": "Point", "coordinates": [ -73.419568131710548, 40.612879326394818 ] } },
{ "type": "Feature", "properties": { "id": 180, "osm_id": 158808699.0, "name": "Kingsland", "type": "hamlet", "z_order": 4, "population": null }, "geometry": { "type": "Point", "coordinates": [ -74.113950136313989, 40.807016776748156 ] } },
{ "type": "Feature", "properties": { "id": 181, "osm_id": 158808838.0, "name": "Roseville", "type": "hamlet", "z_order": 4, "population": null }, "geometry": { "type": "Point", "coordinates": [ -74.190700625283881, 40.755100944872055 ] } },
{ "type": "Feature", "properties": { "id": 182, "osm_id": 158808902.0, "name": "Phoenix", "type": "hamlet", "z_order": 4, "population": null }, "geometry": { "type": "Point", "coordinates": [ -74.340981862757602, 40.529826735885848 ] } },
{ "type": "Feature", "properties": { "id": 183, "osm_id": 158808668.0, "name": "Brightwaters", "type": "village", "z_order": 5, "population": 3212 }, "geometry": { "type": "Point", "coordinates": [ -73.267339945767674, 40.7209320327662 ] } },
{ "type": "Feature", "properties": { "id": 184, "osm_id": 158808702.0, "name": "Newstead North", "type": "hamlet", "z_order": 4, "population": null }, "geometry": { "type": "Point", "coordinates": [ -74.272369866493079, 40.759545029934657 ] } },
{ "type": "Feature", "properties": { "id": 185, "osm_id": 158808914.0, "name": "Shorehaven", "type": "hamlet", "z_order": 4, "population": null }, "geometry": { "type": "Point", "coordinates": [ -73.388451573464351, 41.091763438597525 ] } },
{ "type": "Feature", "properties": { "id": 186, "osm_id": 158809295.0, "name": "Plainview", "type": "hamlet", "z_order": 4, "population": null }, "geometry": { "type": "Point", "coordinates": [ -73.467345566532799, 40.776488125190554 ] } },
{ "type": "Feature", "properties": { "id": 187, "osm_id": 158809488.0, "name": "Van Nest", "type": "neighbourhood", "z_order": 2, "population": null }, "geometry": { "type": "Point", "coordinates": [ -73.863746303271057, 40.848433520528175 ] } },
{ "type": "Feature", "properties": { "id": 188, "osm_id": 158809480.0, "name": "Richmond Valley", "type": "neighbourhood", "z_order": 2, "population": null }, "geometry": { "type": "Point", "coordinates": [ -74.229311359338482, 40.520105488404255 ] } },
{ "type": "Feature", "properties": { "id": 189, "osm_id": 158809116.0, "name": "Keansburg", "type": "town", "z_order": 6, "population": 10573 }, "geometry": { "type": "Point", "coordinates": [ -74.129864352955352, 40.441774256314858 ] } },
{ "type": "Feature", "properties": { "id": 190, "osm_id": 158808968.0, "name": "Samptown", "type": "hamlet", "z_order": 4, "population": null }, "geometry": { "type": "Point", "coordinates": [ -74.430152069116787, 40.581492032676124 ] } },
{ "type": "Feature", "properties": { "id": 191, "osm_id": 158809359.0, "name": "Woodside", "type": "neighbourhood", "z_order": 2, "population": null }, "geometry": { "type": "Point", "coordinates": [ -73.905414504146265, 40.745379781209465 ] } },
{ "type": "Feature", "properties": { "id": 192, "osm_id": 158809036.0, "name": "Birch Hills", "type": "hamlet", "z_order": 4, "population": null }, "geometry": { "type": "Point", "coordinates": [ -74.431542123939082, 40.809544255831099 ] } },
{ "type": "Feature", "properties": { "id": 193, "osm_id": 158809217.0, "name": "Bergen", "type": "hamlet", "z_order": 4, "population": null }, "geometry": { "type": "Point", "coordinates": [ -74.065696944667607, 40.729268589843542 ] } },
{ "type": "Feature", "properties": { "id": 194, "osm_id": 158809392.0, "name": "Tokeneke", "type": "hamlet", "z_order": 4, "population": null }, "geometry": { "type": "Point", "coordinates": [ -73.466231611601032, 41.066763574192208 ] } },
{ "type": "Feature", "properties": { "id": 195, "osm_id": 158809556.0, "name": "Colonia", "type": "hamlet", "z_order": 4, "population": null }, "geometry": { "type": "Point", "coordinates": [ -74.302091843689254, 40.574548464087172 ] } },
{ "type": "Feature", "properties": { "id": 196, "osm_id": 158808687.0, "name": "Haven Homes", "type": "hamlet", "z_order": 4, "population": null }, "geometry": { "type": "Point", "coordinates": [ -74.406261801053574, 40.509548816633327 ] } },
{ "type": "Feature", "properties": { "id": 197, "osm_id": 158809439.0, "name": "Woodland Park", "type": "town", "z_order": 6, "population": 11234 }, "geometry": { "type": "Point", "coordinates": [ -74.196965762629944, 40.889328742292719 ] } },
{ "type": "Feature", "properties": { "id": 198, "osm_id": 158808709.0, "name": "Great Neck Estates", "type": "village", "z_order": 5, "population": 2717 }, "geometry": { "type": "Point", "coordinates": [ -73.736798356394672, 40.787045886608894 ] } },
{ "type": "Feature", "properties": { "id": 199, "osm_id": 158809551.0, "name": "Cliffwood Beach", "type": "hamlet", "z_order": 4, "population": null }, "geometry": { "type": "Point", "coordinates": [ -74.216810924221619, 40.442051529671858 ] } },
{ "type": "Feature", "properties": { "id": 200, "osm_id": 158809984.0, "name": "SoHo", "type": "neighbourhood", "z_order": 2, "population": null }, "geometry": { "type": "Point", "coordinates": [ -73.998750516382685, 40.72287998706372 ] } },
{ "type": "Feature", "properties": { "id": 201, "osm_id": 158810045.0, "name": "Madison", "type": "town", "z_order": 6, "population": 16016 }, "geometry": { "type": "Point", "coordinates": [ -74.417097003466935, 40.759822638567755 ] } },
{ "type": "Feature", "properties": { "id": 202, "osm_id": 158808726.0, "name": "North Hills", "type": "village", "z_order": 5, "population": 4406 }, "geometry": { "type": "Point", "coordinates": [ -73.676518726255892, 40.780934221909916 ] } },
{ "type": "Feature", "properties": { "id": 203, "osm_id": 158809571.0, "name": "Holland", "type": "hamlet", "z_order": 4, "population": null }, "geometry": { "type": "Point", "coordinates": [ -74.145142383145838, 40.390941869242965 ] } },
{ "type": "Feature", "properties": { "id": 204, "osm_id": 158809666.0, "name": "Moonachie", "type": "village", "z_order": 5, "population": 2797 }, "geometry": { "type": "Point", "coordinates": [ -74.045140578591656, 40.841211169839681 ] } },
{ "type": "Feature", "properties": { "id": 205, "osm_id": 158809586.0, "name": "Roslyn Harbor", "type": "village", "z_order": 5, "population": 1032 }, "geometry": { "type": "Point", "coordinates": [ -73.637072735550049, 40.816489081705527 ] } },
{ "type": "Feature", "properties": { "id": 206, "osm_id": 158809799.0, "name": "Greenlawn", "type": "hamlet", "z_order": 4, "population": null }, "geometry": { "type": "Point", "coordinates": [ -73.365118534324111, 40.868987036757034 ] } },
{ "type": "Feature", "properties": { "id": 207, "osm_id": 158809582.0, "name": "Haworth", "type": "village", "z_order": 5, "population": 3433 }, "geometry": { "type": "Point", "coordinates": [ -73.990138362328992, 40.960931485428574 ] } },
{ "type": "Feature", "properties": { "id": 208, "osm_id": 158809875.0, "name": "Laurence Harbor", "type": "hamlet", "z_order": 4, "population": null }, "geometry": { "type": "Point", "coordinates": [ -74.246533823427157, 40.456773420586785 ] } },
{ "type": "Feature", "properties": { "id": 209, "osm_id": 158809599.0, "name": "Scarsdale Park", "type": "hamlet", "z_order": 4, "population": null }, "geometry": { "type": "Point", "coordinates": [ -73.793188280546744, 40.983431279574347 ] } },
{ "type": "Feature", "properties": { "id": 210, "osm_id": 158810585.0, "name": "Hickory Tree", "type": "hamlet", "z_order": 4, "population": null }, "geometry": { "type": "Point", "coordinates": [ -74.432097425024324, 40.746489461370601 ] } },
{ "type": "Feature", "properties": { "id": 211, "osm_id": 158809940.0, "name": "Edgemere", "type": "suburb", "z_order": 3, "population": null }, "geometry": { "type": "Point", "coordinates": [ -73.767905023995112, 40.596364965486231 ] } },
{ "type": "Feature", "properties": { "id": 212, "osm_id": 158810530.0, "name": "Harbor Isle", "type": "hamlet", "z_order": 4, "population": null }, "geometry": { "type": "Point", "coordinates": [ -73.664574849509762, 40.603437196288894 ] } },
{ "type": "Feature", "properties": { "id": 213, "osm_id": 158809643.0, "name": "Stapleton", "type": "neighbourhood", "z_order": 2, "population": null }, "geometry": { "type": "Point", "coordinates": [ -74.077636127547962, 40.62647737173225 ] } },
{ "type": "Feature", "properties": { "id": 214, "osm_id": 158809947.0, "name": "South Norwalk", "type": "hamlet", "z_order": 4, "population": null }, "geometry": { "type": "Point", "coordinates": [ -73.418730360488354, 41.093707872495713 ] } },
{ "type": "Feature", "properties": { "id": 215, "osm_id": 158810049.0, "name": "Madison Heights", "type": "hamlet", "z_order": 4, "population": null }, "geometry": { "type": "Point", "coordinates": [ -74.431819648753148, 40.753711560602 ] } },
{ "type": "Feature", "properties": { "id": 216, "osm_id": 158810593.0, "name": "Elm Park", "type": "neighbourhood", "z_order": 2, "population": null }, "geometry": { "type": "Point", "coordinates": [ -74.148754480499434, 40.631492432039011 ] } },
{ "type": "Feature", "properties": { "id": 217, "osm_id": 158810084.0, "name": "Oak Hill", "type": "hamlet", "z_order": 4, "population": null }, "geometry": { "type": "Point", "coordinates": [ -74.134308605656017, 40.366775836565353 ] } },
{ "type": "Feature", "properties": { "id": 218, "osm_id": 158810277.0, "name": "East Atlantic Beach", "type": "hamlet", "z_order": 4, "population": null }, "geometry": { "type": "Point", "coordinates": [ -73.747076581342156, 40.789823649320596 ] } },
{ "type": "Feature", "properties": { "id": 219, "osm_id": 158810686.0, "name": "Uniondale", "type": "hamlet", "z_order": 4, "population": null }, "geometry": { "type": "Point", "coordinates": [ -73.592905637881728, 40.700379270908599 ] } },
{ "type": "Feature", "properties": { "id": 220, "osm_id": 158810303.0, "name": "Plandome Manor", "type": "village", "z_order": 5, "population": 841 }, "geometry": { "type": "Point", "coordinates": [ -73.697352533326892, 40.816211640710463 ] } },
{ "type": "Feature", "properties": { "id": 221, "osm_id": 158810168.0, "name": "Corona", "type": "neighbourhood", "z_order": 2, "population": null }, "geometry": { "type": "Point", "coordinates": [ -73.860145605305789, 40.746959267043479 ] } },
{ "type": "Feature", "properties": { "id": 222, "osm_id": 158810597.0, "name": "Fairview", "type": "town", "z_order": 6, "population": 13628 }, "geometry": { "type": "Point", "coordinates": [ -73.999028041196752, 40.812600549185277 ] } },
{ "type": "Feature", "properties": { "id": 223, "osm_id": 158810950.0, "name": "Jamaica", "type": "neighbourhood", "z_order": 2, "population": null }, "geometry": { "type": "Point", "coordinates": [ -73.805677148637216, 40.691485149632143 ] } },
{ "type": "Feature", "properties": { "id": 224, "osm_id": 158810983.0, "name": "Belle Haven", "type": "hamlet", "z_order": 4, "population": null }, "geometry": { "type": "Point", "coordinates": [ -73.631515366107948, 41.008986361245888 ] } },
{ "type": "Feature", "properties": { "id": 225, "osm_id": 158810179.0, "name": "Hempstead", "type": "town", "z_order": 6, "population": 52526 }, "geometry": { "type": "Point", "coordinates": [ -73.618684013453802, 40.706318436040249 ] } },
{ "type": "Feature", "properties": { "id": 226, "osm_id": 158810603.0, "name": "Feaster Park", "type": "hamlet", "z_order": 4, "population": null }, "geometry": { "type": "Point", "coordinates": [ -74.442651917500413, 40.484549119866074 ] } },
{ "type": "Feature", "properties": { "id": 227, "osm_id": 158810755.0, "name": "Waterwitch", "type": "hamlet", "z_order": 4, "population": null }, "geometry": { "type": "Point", "coordinates": [ -74.000602749345973, 40.408618381026542 ] } },
{ "type": "Feature", "properties": { "id": 228, "osm_id": 158810843.0, "name": "Midland Beach", "type": "neighbourhood", "z_order": 2, "population": null }, "geometry": { "type": "Point", "coordinates": [ -74.094586012145442, 40.573160588559716 ] } },
{ "type": "Feature", "properties": { "id": 229, "osm_id": 158810773.0, "name": "Ridgedale Park", "type": "hamlet", "z_order": 4, "population": null }, "geometry": { "type": "Point", "coordinates": [ -74.411819002857612, 40.766767045347024 ] } },
{ "type": "Feature", "properties": { "id": 230, "osm_id": 158810851.0, "name": "Grasmere", "type": "neighbourhood", "z_order": 2, "population": null }, "geometry": { "type": "Point", "coordinates": [ -74.08708605282385, 40.604271028016569 ] } },
{ "type": "Feature", "properties": { "id": 231, "osm_id": 158811013.0, "name": "Belltown", "type": "hamlet", "z_order": 4, "population": null }, "geometry": { "type": "Point", "coordinates": [ -73.528734038642398, 41.077041044768407 ] } },
{ "type": "Feature", "properties": { "id": 232, "osm_id": 158810776.0, "name": "Bayside", "type": "neighbourhood", "z_order": 2, "population": null }, "geometry": { "type": "Point", "coordinates": [ -73.77707742445692, 40.768435044078529 ] } },
{ "type": "Feature", "properties": { "id": 233, "osm_id": 158810858.0, "name": "Fresh Ponds", "type": "hamlet", "z_order": 4, "population": null }, "geometry": { "type": "Point", "coordinates": [ -74.465707850921731, 40.405384223687065 ] } },
{ "type": "Feature", "properties": { "id": 234, "osm_id": 158810485.0, "name": "West Hempstead", "type": "hamlet", "z_order": 4, "population": null }, "geometry": { "type": "Point", "coordinates": [ -73.650129561399567, 40.704824194161517 ] } },
{ "type": "Feature", "properties": { "id": 235, "osm_id": 158810928.0, "name": "Fresh Pond Junction", "type": "neighbourhood", "z_order": 2, "population": null }, "geometry": { "type": "Point", "coordinates": [ -73.891525103854534, 40.704010395182394 ] } },
{ "type": "Feature", "properties": { "id": 236, "osm_id": 158811206.0, "name": "Pompton Junction", "type": "neighbourhood", "z_order": 2, "population": null }, "geometry": { "type": "Point", "coordinates": [ -74.300186720916955, 41.003589840525677 ] } },
{ "type": "Feature", "properties": { "id": 237, "osm_id": 158811381.0, "name": "Upper Brookville", "type": "village", "z_order": 5, "population": 1878 }, "geometry": { "type": "Point", "coordinates": [ -73.565125663831807, 40.838710345208824 ] } },
{ "type": "Feature", "properties": { "id": 238, "osm_id": 158811036.0, "name": "Jamesburg", "type": "village", "z_order": 5, "population": 6429 }, "geometry": { "type": "Point", "coordinates": [ -74.440151344326665, 40.352607821812114 ] } },
{ "type": "Feature", "properties": { "id": 239, "osm_id": 158811504.0, "name": "Paerdegat", "type": "neighbourhood", "z_order": 2, "population": null }, "geometry": { "type": "Point", "coordinates": [ -73.918192631715257, 40.631493018772233 ] } },
{ "type": "Feature", "properties": { "id": 240, "osm_id": 158811496.0, "name": "Great Neck", "type": "village", "z_order": 5, "population": 9719 }, "geometry": { "type": "Point", "coordinates": [ -73.728464732983426, 40.800656672439146 ] } },
{ "type": "Feature", "properties": { "id": 241, "osm_id": 158811113.0, "name": "Sun Haven", "type": "hamlet", "z_order": 4, "population": null }, "geometry": { "type": "Point", "coordinates": [ -73.770132347125411, 40.923987995734223 ] } },
{ "type": "Feature", "properties": { "id": 242, "osm_id": 158811396.0, "name": "Hibernia", "type": "hamlet", "z_order": 4, "population": null }, "geometry": { "type": "Point", "coordinates": [ -74.494143876533045, 40.945824278424766 ] } },
{ "type": "Feature", "properties": { "id": 243, "osm_id": 158811137.0, "name": "Lawrence Brook Manor", "type": "hamlet", "z_order": 4, "population": null }, "geometry": { "type": "Point", "coordinates": [ -74.41570644573045, 40.472327466848782 ] } },
{ "type": "Feature", "properties": { "id": 244, "osm_id": 158811446.0, "name": "Woodside", "type": "hamlet", "z_order": 4, "population": null }, "geometry": { "type": "Point", "coordinates": [ -73.789855132930754, 40.898432746424618 ] } },
{ "type": "Feature", "properties": { "id": 245, "osm_id": 158811469.0, "name": "Upper Montvale", "type": "hamlet", "z_order": 4, "population": null }, "geometry": { "type": "Point", "coordinates": [ -74.052085236828006, 41.060652160950326 ] } },
{ "type": "Feature", "properties": { "id": 246, "osm_id": 158811480.0, "name": "Harrison", "type": "town", "z_order": 6, "population": 13942 }, "geometry": { "type": "Point", "coordinates": [ -74.15625511037328, 40.746490048103823 ] } },
{ "type": "Feature", "properties": { "id": 247, "osm_id": 158811410.0, "name": "Tappan", "type": "hamlet", "z_order": 4, "population": null }, "geometry": { "type": "Point", "coordinates": [ -73.948664370150311, 41.022527242003662 ] } },
{ "type": "Feature", "properties": { "id": 248, "osm_id": 158811435.0, "name": "Matawan", "type": "village", "z_order": 5, "population": 8781 }, "geometry": { "type": "Point", "coordinates": [ -74.229589135609643, 40.414829958011353 ] } },
{ "type": "Feature", "properties": { "id": 249, "osm_id": 158811614.0, "name": "Crossmans", "type": "hamlet", "z_order": 4, "population": null }, "geometry": { "type": "Point", "coordinates": [ -74.321258741676132, 40.485105594417774 ] } },
{ "type": "Feature", "properties": { "id": 250, "osm_id": 158811254.0, "name": "Lincoln Park", "type": "town", "z_order": 6, "population": 10856 }, "geometry": { "type": "Point", "coordinates": [ -74.302093352431825, 40.924265185272162 ] } },
{ "type": "Feature", "properties": { "id": 251, "osm_id": 158811354.0, "name": "Throgs Neck", "type": "neighbourhood", "z_order": 2, "population": null }, "geometry": { "type": "Point", "coordinates": [ -73.81957845123145, 40.822600746404476 ] } },
{ "type": "Feature", "properties": { "id": 252, "osm_id": 158811842.0, "name": "Tottenville", "type": "neighbourhood", "z_order": 2, "population": null }, "geometry": { "type": "Point", "coordinates": [ -74.249311753776922, 40.511216647726798 ] } },
{ "type": "Feature", "properties": { "id": 253, "osm_id": 158811210.0, "name": "Old Bridge", "type": "town", "z_order": 6, "population": 65661 }, "geometry": { "type": "Point", "coordinates": [ -74.304210118259277, 40.414070976679 ] } },
{ "type": "Feature", "properties": { "id": 254, "osm_id": 158811998.0, "name": "Gerritsen", "type": "neighbourhood", "z_order": 2, "population": null }, "geometry": { "type": "Point", "coordinates": [ -73.926385355334148, 40.592987896697622 ] } },
{ "type": "Feature", "properties": { "id": 255, "osm_id": 158811979.0, "name": "Maspeth", "type": "neighbourhood", "z_order": 2, "population": null }, "geometry": { "type": "Point", "coordinates": [ -73.912637022472822, 40.723157930972945 ] } },
{ "type": "Feature", "properties": { "id": 256, "osm_id": 158811633.0, "name": "Passaic", "type": "town", "z_order": 6, "population": 67974 }, "geometry": { "type": "Point", "coordinates": [ -74.128476477427881, 40.856766221930059 ] } },
{ "type": "Feature", "properties": { "id": 257, "osm_id": 158811935.0, "name": "Riverside Terrace", "type": "hamlet", "z_order": 4, "population": null }, "geometry": { "type": "Point", "coordinates": [ -74.143476815166238, 40.931487368322593 ] } },
{ "type": "Feature", "properties": { "id": 258, "osm_id": 158811939.0, "name": "Lyndhurst", "type": "town", "z_order": 6, "population": 19732 }, "geometry": { "type": "Point", "coordinates": [ -74.124281670165658, 40.812024628618218 ] } },
{ "type": "Feature", "properties": { "id": 259, "osm_id": 158811782.0, "name": "Cottageville", "type": "hamlet", "z_order": 4, "population": null }, "geometry": { "type": "Point", "coordinates": [ -74.484319531642399, 40.410384028930054 ] } },
{ "type": "Feature", "properties": { "id": 260, "osm_id": 158811895.0, "name": "Lawrence Park", "type": "hamlet", "z_order": 4, "population": null }, "geometry": { "type": "Point", "coordinates": [ -73.84846777016638, 40.940376460457145 ] } },
{ "type": "Feature", "properties": { "id": 261, "osm_id": 158811956.0, "name": "Mount Pleasant", "type": "hamlet", "z_order": 4, "population": null }, "geometry": { "type": "Point", "coordinates": [ -74.217088868130858, 40.374275376791786 ] } },
{ "type": "Feature", "properties": { "id": 262, "osm_id": 158811925.0, "name": "Metuchen", "type": "town", "z_order": 6, "population": 13216 }, "geometry": { "type": "Point", "coordinates": [ -74.363204970279611, 40.543159745444939 ] } },
{ "type": "Feature", "properties": { "id": 263, "osm_id": 158811804.0, "name": "Spring Valley", "type": "hamlet", "z_order": 4, "population": null }, "geometry": { "type": "Point", "coordinates": [ -74.2776462745408, 40.370941726261606 ] } },
{ "type": "Feature", "properties": { "id": 264, "osm_id": 158812314.0, "name": "Heathcote", "type": "hamlet", "z_order": 4, "population": null }, "geometry": { "type": "Point", "coordinates": [ -73.774576683645108, 40.984542384659022 ] } },
{ "type": "Feature", "properties": { "id": 265, "osm_id": 158811806.0, "name": "Long Beach", "type": "town", "z_order": 6, "population": 35111 }, "geometry": { "type": "Point", "coordinates": [ -73.657861028886813, 40.58851154130781 ] } },
{ "type": "Feature", "properties": { "id": 266, "osm_id": 158812066.0, "name": "Bethpage", "type": "hamlet", "z_order": 4, "population": null }, "geometry": { "type": "Point", "coordinates": [ -73.482068714733202, 40.744266329191902 ] } },
{ "type": "Feature", "properties": { "id": 267, "osm_id": 158811506.0, "name": "Utopia", "type": "neighbourhood", "z_order": 2, "population": null }, "geometry": { "type": "Point", "coordinates": [ -73.786522152952841, 40.727324658859544 ] } },
{ "type": "Feature", "properties": { "id": 268, "osm_id": 158812733.0, "name": "Fair Haven", "type": "village", "z_order": 5, "population": 5885 }, "geometry": { "type": "Point", "coordinates": [ -74.038194746888863, 40.360665261513788 ] } },
{ "type": "Feature", "properties": { "id": 269, "osm_id": 158813217.0, "name": "Glen Oaks", "type": "neighbourhood", "z_order": 2, "population": null }, "geometry": { "type": "Point", "coordinates": [ -73.71151996134688, 40.747046271198428 ] } },
{ "type": "Feature", "properties": { "id": 270, "osm_id": 158813235.0, "name": "Linden-Park", "type": "neighbourhood", "z_order": 2, "population": null }, "geometry": { "type": "Point", "coordinates": [ -74.091252780710434, 40.59232673217528 ] } },
{ "type": "Feature", "properties": { "id": 271, "osm_id": 158813169.0, "name": "Bloomfield", "type": "town", "z_order": 6, "population": 45372 }, "geometry": { "type": "Point", "coordinates": [ -74.185422624674544, 40.806766996033588 ] } },
{ "type": "Feature", "properties": { "id": 272, "osm_id": 158812343.0, "name": "Schuylerville", "type": "neighbourhood", "z_order": 2, "population": null }, "geometry": { "type": "Point", "coordinates": [ -73.827222244011509, 40.828888850165271 ] } },
{ "type": "Feature", "properties": { "id": 273, "osm_id": 158813181.0, "name": "Valentine", "type": "hamlet", "z_order": 4, "population": null }, "geometry": { "type": "Point", "coordinates": [ -74.32542563720078, 40.530937924789555 ] } },
{ "type": "Feature", "properties": { "id": 274, "osm_id": 158812748.0, "name": "Oak Hill", "type": "hamlet", "z_order": 4, "population": null }, "geometry": { "type": "Point", "coordinates": [ -74.07458477951667, 40.381775755208537 ] } },
{ "type": "Feature", "properties": { "id": 275, "osm_id": 158812396.0, "name": "Isle of San Souci", "type": "hamlet", "z_order": 4, "population": null }, "geometry": { "type": "Point", "coordinates": [ -73.767910053137015, 40.900932732865158 ] } },
{ "type": "Feature", "properties": { "id": 276, "osm_id": 158813187.0, "name": "Hanover", "type": "town", "z_order": 6, "population": 13737 }, "geometry": { "type": "Point", "coordinates": [ -74.395405727701302, 40.817421568433588 ] } },
{ "type": "Feature", "properties": { "id": 277, "osm_id": 158813129.0, "name": "Watchung", "type": "village", "z_order": 5, "population": 6284 }, "geometry": { "type": "Point", "coordinates": [ -74.450986379101963, 40.637880028990452 ] } },
{ "type": "Feature", "properties": { "id": 278, "osm_id": 158812552.0, "name": "Madison Hill", "type": "hamlet", "z_order": 4, "population": null }, "geometry": { "type": "Point", "coordinates": [ -74.308759060930569, 40.611214345148426 ] } },
{ "type": "Feature", "properties": { "id": 279, "osm_id": 158813268.0, "name": "Greensand", "type": "hamlet", "z_order": 4, "population": null }, "geometry": { "type": "Point", "coordinates": [ -74.387094316333474, 40.491771638192631 ] } },
{ "type": "Feature", "properties": { "id": 280, "osm_id": 158813356.0, "name": "Arverne", "type": "suburb", "z_order": 3, "population": 18540 }, "geometry": { "type": "Point", "coordinates": [ -73.789546259798811, 40.593417217778153 ] } },
{ "type": "Feature", "properties": { "id": 281, "osm_id": 158812690.0, "name": "Elmsmere", "type": "hamlet", "z_order": 4, "population": null }, "geometry": { "type": "Point", "coordinates": [ -73.820689221040013, 40.928432164615856 ] } },
{ "type": "Feature", "properties": { "id": 282, "osm_id": 158812711.0, "name": "Spencer Estates", "type": "neighbourhood", "z_order": 2, "population": null }, "geometry": { "type": "Point", "coordinates": [ -73.821111166045768, 40.845277733983323 ] } },
{ "type": "Feature", "properties": { "id": 283, "osm_id": 158813270.0, "name": "Masonicus", "type": "hamlet", "z_order": 4, "population": null }, "geometry": { "type": "Point", "coordinates": [ -74.121258233871941, 41.083564596189319 ] } },
{ "type": "Feature", "properties": { "id": 284, "osm_id": 158813263.0, "name": "Hillsdale", "type": "town", "z_order": 6, "population": 10053 }, "geometry": { "type": "Point", "coordinates": [ -74.040417543791449, 41.00259742318994 ] } },
{ "type": "Feature", "properties": { "id": 285, "osm_id": 158813304.0, "name": "Unionport", "type": "neighbourhood", "z_order": 2, "population": null }, "geometry": { "type": "Point", "coordinates": [ -73.850134930707597, 40.827322859195363 ] } },
{ "type": "Feature", "properties": { "id": 286, "osm_id": 158813854.0, "name": "Lambert Houses", "type": "neighbourhood", "z_order": 2, "population": null }, "geometry": { "type": "Point", "coordinates": [ -73.878888965725295, 40.842777747542812 ] } },
{ "type": "Feature", "properties": { "id": 287, "osm_id": 158814058.0, "name": "Montclair Heights", "type": "hamlet", "z_order": 4, "population": null }, "geometry": { "type": "Point", "coordinates": [ -74.203389904679227, 40.858373116587444 ] } },
{ "type": "Feature", "properties": { "id": 288, "osm_id": 158814064.0, "name": "Bryn Mawr Park", "type": "hamlet", "z_order": 4, "population": null }, "geometry": { "type": "Point", "coordinates": [ -73.864579212989412, 40.946209678332679 ] } },
{ "type": "Feature", "properties": { "id": 289, "osm_id": 158813946.0, "name": "Piermont", "type": "village", "z_order": 5, "population": 2604 }, "geometry": { "type": "Point", "coordinates": [ -73.918426067718642, 41.041534129458938 ] } },
{ "type": "Feature", "properties": { "id": 290, "osm_id": 158813412.0, "name": "Union Square", "type": "hamlet", "z_order": 4, "population": null }, "geometry": { "type": "Point", "coordinates": [ -74.202367144853994, 40.658713836061452 ] } },
{ "type": "Feature", "properties": { "id": 291, "osm_id": 158813973.0, "name": "Richmond", "type": "neighbourhood", "z_order": 2, "population": null }, "geometry": { "type": "Point", "coordinates": [ -74.130420324592848, 40.573993665916106 ] } },
{ "type": "Feature", "properties": { "id": 292, "osm_id": 158813856.0, "name": "Island Park", "type": "village", "z_order": 5, "population": 4707 }, "geometry": { "type": "Point", "coordinates": [ -73.655407813465985, 40.604270441283347 ] } },
{ "type": "Feature", "properties": { "id": 293, "osm_id": 158813419.0, "name": "Greenpoint", "type": "neighbourhood", "z_order": 2, "population": null }, "geometry": { "type": "Point", "coordinates": [ -73.9509714051798, 40.723713399696265 ] } },
{ "type": "Feature", "properties": { "id": 294, "osm_id": 158814054.0, "name": "Milltown", "type": "hamlet", "z_order": 4, "population": null }, "geometry": { "type": "Point", "coordinates": [ -74.316537634713654, 40.702045928535625 ] } },
{ "type": "Feature", "properties": { "id": 295, "osm_id": 158813862.0, "name": "Manhasset Hills", "type": "hamlet", "z_order": 4, "population": null }, "geometry": { "type": "Point", "coordinates": [ -73.679852376786059, 40.759268091853784 ] } },
{ "type": "Feature", "properties": { "id": 296, "osm_id": 158813466.0, "name": "West Islip", "type": "hamlet", "z_order": 4, "population": null }, "geometry": { "type": "Point", "coordinates": [ -73.307730157866004, 40.705856341718317 ] } },
{ "type": "Feature", "properties": { "id": 297, "osm_id": 158813535.0, "name": "West Mount Vernon", "type": "hamlet", "z_order": 4, "population": null }, "geometry": { "type": "Point", "coordinates": [ -73.847912217624042, 40.912321392345063 ] } },
{ "type": "Feature", "properties": { "id": 298, "osm_id": 158813642.0, "name": "Oceanic", "type": "hamlet", "z_order": 4, "population": null }, "geometry": { "type": "Point", "coordinates": [ -74.010694057852689, 40.377887222688287 ] } },
{ "type": "Feature", "properties": { "id": 299, "osm_id": 158814384.0, "name": "Dunellen", "type": "village", "z_order": 5, "population": 6940 }, "geometry": { "type": "Point", "coordinates": [ -74.471820102353931, 40.589269516811783 ] } },
{ "type": "Feature", "properties": { "id": 300, "osm_id": 158814599.0, "name": "Eltingville", "type": "neighbourhood", "z_order": 2, "population": null }, "geometry": { "type": "Point", "coordinates": [ -74.165698833040821, 40.545383045261701 ] } },
{ "type": "Feature", "properties": { "id": 301, "osm_id": 158814234.0, "name": "Elmwood Park", "type": "town", "z_order": 6, "population": 18805 }, "geometry": { "type": "Point", "coordinates": [ -74.118476028751559, 40.903987768933831 ] } },
{ "type": "Feature", "properties": { "id": 302, "osm_id": 158814240.0, "name": "Preakness", "type": "suburb", "z_order": 3, "population": null }, "geometry": { "type": "Point", "coordinates": [ -74.227646210454026, 40.930376179418886 ] } },
{ "type": "Feature", "properties": { "id": 303, "osm_id": 158814520.0, "name": "Oyster Bay Cove", "type": "village", "z_order": 5, "population": 2250 }, "geometry": { "type": "Point", "coordinates": [ -73.510956608744593, 40.870931889750381 ] } },
{ "type": "Feature", "properties": { "id": 304, "osm_id": 158814557.0, "name": "Woodmere", "type": "hamlet", "z_order": 4, "population": null }, "geometry": { "type": "Point", "coordinates": [ -73.712631401707696, 40.632048152219426 ] } },
{ "type": "Feature", "properties": { "id": 305, "osm_id": 158814889.0, "name": "Normandie", "type": "hamlet", "z_order": 4, "population": null }, "geometry": { "type": "Point", "coordinates": [ -73.975137605495476, 40.379831572767444 ] } },
{ "type": "Feature", "properties": { "id": 306, "osm_id": 158814813.0, "name": "Cottrell Corners", "type": "neighbourhood", "z_order": 2, "population": null }, "geometry": { "type": "Point", "coordinates": [ -74.295980011352228, 40.403163270803162 ] } },
{ "type": "Feature", "properties": { "id": 307, "osm_id": 158814887.0, "name": "Elizabeth", "type": "city", "z_order": 7, "population": 126179 }, "geometry": { "type": "Point", "coordinates": [ -74.210700600627163, 40.663991585213694 ] } },
{ "type": "Feature", "properties": { "id": 308, "osm_id": 158814830.0, "name": "Pleasant Valley", "type": "hamlet", "z_order": 4, "population": null }, "geometry": { "type": "Point", "coordinates": [ -74.21292197260621, 40.366775585108257 ] } },
{ "type": "Feature", "properties": { "id": 309, "osm_id": 158814605.0, "name": "Glenville", "type": "hamlet", "z_order": 4, "population": null }, "geometry": { "type": "Point", "coordinates": [ -73.84068995075458, 41.06565221765041 ] } },
{ "type": "Feature", "properties": { "id": 310, "osm_id": 158814900.0, "name": "Old Tappan", "type": "village", "z_order": 5, "population": 6013 }, "geometry": { "type": "Point", "coordinates": [ -73.991107310335849, 41.010697023864566 ] } },
{ "type": "Feature", "properties": { "id": 311, "osm_id": 158814609.0, "name": "Greenvale", "type": "hamlet", "z_order": 4, "population": null }, "geometry": { "type": "Point", "coordinates": [ -73.628461419686673, 40.810655780010933 ] } },
{ "type": "Feature", "properties": { "id": 312, "osm_id": 158814853.0, "name": "Thomaston", "type": "village", "z_order": 5, "population": 2563 }, "geometry": { "type": "Point", "coordinates": [ -73.713742171516245, 40.786212390157317 ] } },
{ "type": "Feature", "properties": { "id": 313, "osm_id": 158815106.0, "name": "Half Hollow", "type": "hamlet", "z_order": 4, "population": null }, "geometry": { "type": "Point", "coordinates": [ -73.343174963272944, 40.776487538457332 ] } },
{ "type": "Feature", "properties": { "id": 314, "osm_id": 158815366.0, "name": "Two Bridges", "type": "hamlet", "z_order": 4, "population": null }, "geometry": { "type": "Point", "coordinates": [ -74.277092314560065, 40.895654480798726 ] } },
{ "type": "Feature", "properties": { "id": 315, "osm_id": 158815395.0, "name": "Russell Gardens", "type": "village", "z_order": 5, "population": 1047 }, "geometry": { "type": "Point", "coordinates": [ -73.724575865187049, 40.781212417276237 ] } },
{ "type": "Feature", "properties": { "id": 316, "osm_id": 158814860.0, "name": "Pine Aire", "type": "hamlet", "z_order": 4, "population": null }, "geometry": { "type": "Point", "coordinates": [ -73.274006157180594, 40.770653817667608 ] } },
{ "type": "Feature", "properties": { "id": 317, "osm_id": 158814907.0, "name": "Kitchell", "type": "hamlet", "z_order": 4, "population": null }, "geometry": { "type": "Point", "coordinates": [ -74.46459984714123, 41.007042178804795 ] } },
{ "type": "Feature", "properties": { "id": 318, "osm_id": 158815300.0, "name": "Wilmot Woods", "type": "hamlet", "z_order": 4, "population": null }, "geometry": { "type": "Point", "coordinates": [ -73.780410152977751, 40.980098048139325 ] } },
{ "type": "Feature", "properties": { "id": 319, "osm_id": 158814862.0, "name": "Pinebrook", "type": "hamlet", "z_order": 4, "population": null }, "geometry": { "type": "Point", "coordinates": [ -73.776243425091167, 40.962876170783858 ] } },
{ "type": "Feature", "properties": { "id": 320, "osm_id": 158814963.0, "name": "Glen Rock", "type": "town", "z_order": 6, "population": 11396 }, "geometry": { "type": "Point", "coordinates": [ -74.132920813947564, 40.962875751688699 ] } },
{ "type": "Feature", "properties": { "id": 321, "osm_id": 158815316.0, "name": "Newark", "type": "city", "z_order": 7, "population": 281402 }, "geometry": { "type": "Point", "coordinates": [ -74.17236672083439, 40.735656941166269 ] } },
{ "type": "Feature", "properties": { "id": 322, "osm_id": 158814884.0, "name": "Marcella", "type": "hamlet", "z_order": 4, "population": null }, "geometry": { "type": "Point", "coordinates": [ -74.474322268089281, 40.987042454918594 ] } },
{ "type": "Feature", "properties": { "id": 323, "osm_id": 158814808.0, "name": "City Line", "type": "neighbourhood", "z_order": 2, "population": null }, "geometry": { "type": "Point", "coordinates": [ -73.886962331042994, 40.676225056714458 ] } },
{ "type": "Feature", "properties": { "id": 324, "osm_id": 158814773.0, "name": "Emerson Hill", "type": "neighbourhood", "z_order": 2, "population": null }, "geometry": { "type": "Point", "coordinates": [ -74.095975144958388, 40.608715364536266 ] } },
{ "type": "Feature", "properties": { "id": 325, "osm_id": 158815523.0, "name": "Brookville", "type": "village", "z_order": 5, "population": 3785 }, "geometry": { "type": "Point", "coordinates": [ -73.567348209277299, 40.813155263537283 ] } },
{ "type": "Feature", "properties": { "id": 326, "osm_id": 158814619.0, "name": "Parkside", "type": "neighbourhood", "z_order": 2, "population": null }, "geometry": { "type": "Point", "coordinates": [ -73.850947053306072, 40.710739554688161 ] } },
{ "type": "Feature", "properties": { "id": 327, "osm_id": 158815484.0, "name": "Victory Park", "type": "hamlet", "z_order": 4, "population": null }, "geometry": { "type": "Point", "coordinates": [ -73.794021609360243, 40.952598532569596 ] } },
{ "type": "Feature", "properties": { "id": 328, "osm_id": 158815469.0, "name": "Old Brookville", "type": "village", "z_order": 5, "population": 2244 }, "geometry": { "type": "Point", "coordinates": [ -73.604849346989795, 40.832044049976872 ] } },
{ "type": "Feature", "properties": { "id": 329, "osm_id": 158815491.0, "name": "Bronxville Heights", "type": "hamlet", "z_order": 4, "population": null }, "geometry": { "type": "Point", "coordinates": [ -73.842911909466849, 40.966209318399848 ] } },
{ "type": "Feature", "properties": { "id": 330, "osm_id": 158816079.0, "name": "Sunnyside", "type": "neighbourhood", "z_order": 2, "population": null }, "geometry": { "type": "Point", "coordinates": [ -74.103753132008251, 40.616215156219795 ] } },
{ "type": "Feature", "properties": { "id": 331, "osm_id": 158815704.0, "name": "Malba", "type": "neighbourhood", "z_order": 2, "population": null }, "geometry": { "type": "Point", "coordinates": [ -73.826800969558008, 40.790656894315077 ] } },
{ "type": "Feature", "properties": { "id": 332, "osm_id": 158817389.0, "name": "Greystone", "type": "hamlet", "z_order": 4, "population": null }, "geometry": { "type": "Point", "coordinates": [ -73.888190950410177, 40.971209123642836 ] } },
{ "type": "Feature", "properties": { "id": 333, "osm_id": 158817277.0, "name": "Kew Gardens", "type": "neighbourhood", "z_order": 2, "population": null }, "geometry": { "type": "Point", "coordinates": [ -73.830742056611157, 40.713941441700456 ] } },
{ "type": "Feature", "properties": { "id": 334, "osm_id": 158815894.0, "name": "Lake Parsippany", "type": "hamlet", "z_order": 4, "population": null }, "geometry": { "type": "Point", "coordinates": [ -74.428764445046411, 40.850099423783888 ] } },
{ "type": "Feature", "properties": { "id": 335, "osm_id": 158815623.0, "name": "Albertson", "type": "hamlet", "z_order": 4, "population": null }, "geometry": { "type": "Point", "coordinates": [ -73.643184400249012, 40.773434094950261 ] } },
{ "type": "Feature", "properties": { "id": 336, "osm_id": 158816445.0, "name": "Roslyn Estates", "type": "village", "z_order": 5, "population": 1193 }, "geometry": { "type": "Point", "coordinates": [ -73.660406948156734, 40.794267399107071 ] } },
{ "type": "Feature", "properties": { "id": 337, "osm_id": 158815903.0, "name": "Fort Hill", "type": "hamlet", "z_order": 4, "population": null }, "geometry": { "type": "Point", "coordinates": [ -73.406508539832984, 40.879264926428391 ] } },
{ "type": "Feature", "properties": { "id": 338, "osm_id": 158815657.0, "name": "Glenwood Landing", "type": "hamlet", "z_order": 4, "population": null }, "geometry": { "type": "Point", "coordinates": [ -73.638739309358044, 40.830655587716166 ] } },
{ "type": "Feature", "properties": { "id": 339, "osm_id": 158816594.0, "name": "New Utrecht", "type": "neighbourhood", "z_order": 2, "population": null }, "geometry": { "type": "Point", "coordinates": [ -73.995972502213888, 40.61316003633209 ] } },
{ "type": "Feature", "properties": { "id": 340, "osm_id": 158816493.0, "name": "Oak Tree", "type": "hamlet", "z_order": 4, "population": null }, "geometry": { "type": "Point", "coordinates": [ -74.374249804091349, 40.578938234417194 ] } },
{ "type": "Feature", "properties": { "id": 341, "osm_id": 158816547.0, "name": "Kips Bay", "type": "neighbourhood", "z_order": 2, "population": null }, "geometry": { "type": "Point", "coordinates": [ -73.977083212860123, 40.739546228057804 ] } },
{ "type": "Feature", "properties": { "id": 342, "osm_id": 158817196.0, "name": "Murray Hill", "type": "neighbourhood", "z_order": 2, "population": null }, "geometry": { "type": "Point", "coordinates": [ -74.400984973910681, 40.695379298027547 ] } },
{ "type": "Feature", "properties": { "id": 343, "osm_id": 158816626.0, "name": "Wantagh", "type": "hamlet", "z_order": 4, "population": null }, "geometry": { "type": "Point", "coordinates": [ -73.510125878321062, 40.683712024086134 ] } },
{ "type": "Feature", "properties": { "id": 344, "osm_id": 158817610.0, "name": "Saddle River", "type": "village", "z_order": 5, "population": 3786 }, "geometry": { "type": "Point", "coordinates": [ -74.102086642019287, 41.0317636802057 ] } },
{ "type": "Feature", "properties": { "id": 345, "osm_id": 158817466.0, "name": "Rossville", "type": "neighbourhood", "z_order": 2, "population": null }, "geometry": { "type": "Point", "coordinates": [ -74.212898251820235, 40.555623719282977 ] } },
{ "type": "Feature", "properties": { "id": 346, "osm_id": 158817488.0, "name": "Lowerre", "type": "hamlet", "z_order": 4, "population": null }, "geometry": { "type": "Point", "coordinates": [ -73.896802517730649, 40.915932316232215 ] } },
{ "type": "Feature", "properties": { "id": 347, "osm_id": 158817989.0, "name": "Old Greenwich", "type": "hamlet", "z_order": 4, "population": null }, "geometry": { "type": "Point", "coordinates": [ -73.564846043541934, 41.022874923347302 ] } },
{ "type": "Feature", "properties": { "id": 348, "osm_id": 158817884.0, "name": "Oakland Gardens", "type": "neighbourhood", "z_order": 2, "population": null }, "geometry": { "type": "Point", "coordinates": [ -73.765966038333985, 40.753990929434792 ] } },
{ "type": "Feature", "properties": { "id": 349, "osm_id": 158818571.0, "name": "Macopin", "type": "suburb", "z_order": 3, "population": null }, "geometry": { "type": "Point", "coordinates": [ -74.388763907626611, 41.052319124272316 ] } },
{ "type": "Feature", "properties": { "id": 350, "osm_id": 158818586.0, "name": "Fort Salonga", "type": "hamlet", "z_order": 4, "population": null }, "geometry": { "type": "Point", "coordinates": [ -73.300948946741542, 40.912597827511746 ] } },
{ "type": "Feature", "properties": { "id": 351, "osm_id": 158817628.0, "name": "Rosedale", "type": "hamlet", "z_order": 4, "population": null }, "geometry": { "type": "Point", "coordinates": [ -73.793466308275001, 40.890932870922057 ] } },
{ "type": "Feature", "properties": { "id": 352, "osm_id": 158818052.0, "name": "Green Pond", "type": "hamlet", "z_order": 4, "population": null }, "geometry": { "type": "Point", "coordinates": [ -74.477656002438479, 41.017319817019057 ] } },
{ "type": "Feature", "properties": { "id": 353, "osm_id": 158817928.0, "name": "Lake Hiawatha", "type": "hamlet", "z_order": 4, "population": null }, "geometry": { "type": "Point", "coordinates": [ -74.381540551109737, 40.882599079872762 ] } },
{ "type": "Feature", "properties": { "id": 354, "osm_id": 158817658.0, "name": "Staten Island Junction", "type": "hamlet", "z_order": 4, "population": null }, "geometry": { "type": "Point", "coordinates": [ -74.289305418036122, 40.657120017173014 ] } },
{ "type": "Feature", "properties": { "id": 355, "osm_id": 158818379.0, "name": "Maywood", "type": "hamlet", "z_order": 4, "population": null }, "geometry": { "type": "Point", "coordinates": [ -73.424310361069018, 40.722899097802951 ] } },
{ "type": "Feature", "properties": { "id": 356, "osm_id": 158818452.0, "name": "Martins Landing", "type": "hamlet", "z_order": 4, "population": null }, "geometry": { "type": "Point", "coordinates": [ -74.399594835269355, 40.493160435729436 ] } },
{ "type": "Feature", "properties": { "id": 357, "osm_id": 158818104.0, "name": "Sheepshead Bay", "type": "neighbourhood", "z_order": 2, "population": null }, "geometry": { "type": "Point", "coordinates": [ -73.944582215666756, 40.591216046185764 ] } },
{ "type": "Feature", "properties": { "id": 358, "osm_id": 158817985.0, "name": "Teaneck", "type": "town", "z_order": 6, "population": 39610 }, "geometry": { "type": "Point", "coordinates": [ -74.015972729014265, 40.897599166154009 ] } },
{ "type": "Feature", "properties": { "id": 359, "osm_id": 158818143.0, "name": "Valhalla", "type": "hamlet", "z_order": 4, "population": null }, "geometry": { "type": "Point", "coordinates": [ -73.775132655282604, 41.074818834599029 ] } },
{ "type": "Feature", "properties": { "id": 360, "osm_id": 158818519.0, "name": "Harborview", "type": "hamlet", "z_order": 4, "population": null }, "geometry": { "type": "Point", "coordinates": [ -73.408729827993, 41.082041269106554 ] } },
{ "type": "Feature", "properties": { "id": 361, "osm_id": 158808653.0, "name": "Middlesex", "type": "town", "z_order": 6, "population": 13746 }, "geometry": { "type": "Point", "coordinates": [ -74.494037007267579, 40.573491087001827 ] } },
{ "type": "Feature", "properties": { "id": 362, "osm_id": 158818558.0, "name": "Nanuet", "type": "town", "z_order": 6, "population": null }, "geometry": { "type": "Point", "coordinates": [ -74.013473077849866, 41.088707229062408 ] } },
{ "type": "Feature", "properties": { "id": 363, "osm_id": 158818724.0, "name": "Bay Colony", "type": "hamlet", "z_order": 4, "population": null }, "geometry": { "type": "Point", "coordinates": [ -73.595406211055476, 40.629547159950505 ] } },
{ "type": "Feature", "properties": { "id": 364, "osm_id": 158819060.0, "name": "Cambria Heights", "type": "neighbourhood", "z_order": 2, "population": null }, "geometry": { "type": "Point", "coordinates": [ -73.738465349297812, 40.694547394137572 ] } },
{ "type": "Feature", "properties": { "id": 365, "osm_id": 158819165.0, "name": "Midland Park", "type": "village", "z_order": 5, "population": 6906 }, "geometry": { "type": "Point", "coordinates": [ -74.140698800997427, 40.989264245992786 ] } },
{ "type": "Feature", "properties": { "id": 366, "osm_id": 158819331.0, "name": "Redshaw Corner", "type": "hamlet", "z_order": 4, "population": null }, "geometry": { "type": "Point", "coordinates": [ -74.354870843954188, 40.356774968793871 ] } },
{ "type": "Feature", "properties": { "id": 367, "osm_id": 158819122.0, "name": "Port Richmond", "type": "neighbourhood", "z_order": 2, "population": null }, "geometry": { "type": "Point", "coordinates": [ -74.136531821653747, 40.633159173485069 ] } },
{ "type": "Feature", "properties": { "id": 368, "osm_id": 158819305.0, "name": "Echo Lake", "type": "hamlet", "z_order": 4, "population": null }, "geometry": { "type": "Point", "coordinates": [ -74.394597544597303, 41.058707978509233 ] } },
{ "type": "Feature", "properties": { "id": 369, "osm_id": 158819682.0, "name": "Dobbs Ferry", "type": "town", "z_order": 6, "population": 11138 }, "geometry": { "type": "Point", "coordinates": [ -73.872635060129483, 41.014541719031229 ] } },
{ "type": "Feature", "properties": { "id": 370, "osm_id": 158819386.0, "name": "Lake View", "type": "hamlet", "z_order": 4, "population": null }, "geometry": { "type": "Point", "coordinates": [ -74.146532437968133, 40.892043473092542 ] } },
{ "type": "Feature", "properties": { "id": 371, "osm_id": 158819443.0, "name": "North Merrick", "type": "hamlet", "z_order": 4, "population": null }, "geometry": { "type": "Point", "coordinates": [ -73.56318273867619, 40.691212486321916 ] } },
{ "type": "Feature", "properties": { "id": 372, "osm_id": 158819341.0, "name": "Rockleigh", "type": "village", "z_order": 5, "population": 393 }, "geometry": { "type": "Point", "coordinates": [ -73.9304141170945, 41.000375380658625 ] } },
{ "type": "Feature", "properties": { "id": 373, "osm_id": 158820734.0, "name": "Browntown", "type": "neighbourhood", "z_order": 2, "population": null }, "geometry": { "type": "Point", "coordinates": [ -74.309540002849246, 40.401153374241204 ] } },
{ "type": "Feature", "properties": { "id": 374, "osm_id": 158820752.0, "name": "Lefferts Mill", "type": "hamlet", "z_order": 4, "population": null }, "geometry": { "type": "Point", "coordinates": [ -73.44484283872093, 40.900098146766169 ] } },
{ "type": "Feature", "properties": { "id": 375, "osm_id": 158820086.0, "name": "Warren Point", "type": "hamlet", "z_order": 4, "population": null }, "geometry": { "type": "Point", "coordinates": [ -74.107920027532899, 40.927042947983864 ] } },
{ "type": "Feature", "properties": { "id": 376, "osm_id": 158820263.0, "name": "Chelsea", "type": "neighbourhood", "z_order": 2, "population": null }, "geometry": { "type": "Point", "coordinates": [ -74.194866514980149, 40.600659517396195 ] } },
{ "type": "Feature", "properties": { "id": 377, "osm_id": 158820391.0, "name": "New Dorp Beach", "type": "neighbourhood", "z_order": 2, "population": null }, "geometry": { "type": "Point", "coordinates": [ -74.102919551737642, 40.565382852966934 ] } },
{ "type": "Feature", "properties": { "id": 378, "osm_id": 158820541.0, "name": "Ampere", "type": "hamlet", "z_order": 4, "population": null }, "geometry": { "type": "Point", "coordinates": [ -74.194867436989497, 40.766767464442182 ] } },
{ "type": "Feature", "properties": { "id": 379, "osm_id": 158820676.0, "name": "Far Rockaway", "type": "suburb", "z_order": 3, "population": 60035 }, "geometry": { "type": "Point", "coordinates": [ -73.755132679939322, 40.6053824683774 ] } },
{ "type": "Feature", "properties": { "id": 380, "osm_id": 158820533.0, "name": "Kearny", "type": "town", "z_order": 6, "population": 38008 }, "geometry": { "type": "Point", "coordinates": [ -74.14542141670249, 40.768434122069181 ] } },
{ "type": "Feature", "properties": { "id": 381, "osm_id": 158821482.0, "name": "Rockaway Park", "type": "suburb", "z_order": 3, "population": null }, "geometry": { "type": "Point", "coordinates": [ -73.836153580938046, 40.580510344176417 ] } },
{ "type": "Feature", "properties": { "id": 382, "osm_id": 158821470.0, "name": "East Massapequa", "type": "hamlet", "z_order": 4, "population": null }, "geometry": { "type": "Point", "coordinates": [ -73.436512400432903, 40.673433966776713 ] } },
{ "type": "Feature", "properties": { "id": 383, "osm_id": 158819939.0, "name": "Roosevelt", "type": "hamlet", "z_order": 4, "population": null }, "geometry": { "type": "Point", "coordinates": [ -73.589016853904369, 40.678712973214431 ] } },
{ "type": "Feature", "properties": { "id": 384, "osm_id": 158819756.0, "name": "Navesink", "type": "hamlet", "z_order": 4, "population": null }, "geometry": { "type": "Point", "coordinates": [ -74.035417151815224, 40.399553268925359 ] } },
{ "type": "Feature", "properties": { "id": 385, "osm_id": 158821564.0, "name": "Maywood", "type": "village", "z_order": 5, "population": 9374 }, "geometry": { "type": "Point", "coordinates": [ -74.061807406318962, 40.902598971397026 ] } },
{ "type": "Feature", "properties": { "id": 386, "osm_id": 158821701.0, "name": "Great Neck Gardens", "type": "hamlet", "z_order": 4, "population": null }, "geometry": { "type": "Point", "coordinates": [ -73.723888968221971, 40.797222187613784 ] } },
{ "type": "Feature", "properties": { "id": 387, "osm_id": 158820727.0, "name": "Adams", "type": "hamlet", "z_order": 4, "population": null }, "geometry": { "type": "Point", "coordinates": [ -74.493208959053064, 40.450938442511557 ] } },
{ "type": "Feature", "properties": { "id": 388, "osm_id": 158820932.0, "name": "Halesite", "type": "hamlet", "z_order": 4, "population": null }, "geometry": { "type": "Point", "coordinates": [ -73.415397548148505, 40.888431459557978 ] } },
{ "type": "Feature", "properties": { "id": 389, "osm_id": 158821783.0, "name": "Pulis Mills", "type": "hamlet", "z_order": 4, "population": null }, "geometry": { "type": "Point", "coordinates": [ -74.176255840087862, 41.030374798849863 ] } },
{ "type": "Feature", "properties": { "id": 390, "osm_id": 158821736.0, "name": "Whippany", "type": "hamlet", "z_order": 4, "population": null }, "geometry": { "type": "Point", "coordinates": [ -74.41709725492403, 40.824544174474312 ] } },
{ "type": "Feature", "properties": { "id": 391, "osm_id": 158821146.0, "name": "Springfield Gardens", "type": "neighbourhood", "z_order": 2, "population": null }, "geometry": { "type": "Point", "coordinates": [ -73.746521028799819, 40.67815892941465 ] } },
{ "type": "Feature", "properties": { "id": 392, "osm_id": 158821732.0, "name": "Westons Mills", "type": "hamlet", "z_order": 4, "population": null }, "geometry": { "type": "Point", "coordinates": [ -74.412373046657379, 40.485382783955714 ] } },
{ "type": "Feature", "properties": { "id": 393, "osm_id": 158821211.0, "name": "West Caldwell", "type": "town", "z_order": 6, "population": 10797 }, "geometry": { "type": "Point", "coordinates": [ -74.3018154085226, 40.840932890654301 ] } },
{ "type": "Feature", "properties": { "id": 394, "osm_id": 158820037.0, "name": "North Plainfield", "type": "town", "z_order": 6, "population": 21738 }, "geometry": { "type": "Point", "coordinates": [ -74.427374306405085, 40.630102461035762 ] } },
{ "type": "Feature", "properties": { "id": 395, "osm_id": 158821983.0, "name": "Greenridge", "type": "neighbourhood", "z_order": 2, "population": null }, "geometry": { "type": "Point", "coordinates": [ -74.169885258399859, 40.561223584974186 ] } },
{ "type": "Feature", "properties": { "id": 396, "osm_id": 158822045.0, "name": "Chrome", "type": "hamlet", "z_order": 4, "population": null }, "geometry": { "type": "Point", "coordinates": [ -74.216255874593472, 40.576493233261488 ] } },
{ "type": "Feature", "properties": { "id": 397, "osm_id": 158820048.0, "name": "North Stelton", "type": "hamlet", "z_order": 4, "population": null }, "geometry": { "type": "Point", "coordinates": [ -74.420984781615914, 40.537048332203057 ] } },
{ "type": "Feature", "properties": { "id": 398, "osm_id": 158821494.0, "name": "Elm Park Village", "type": "hamlet", "z_order": 4, "population": null }, "geometry": { "type": "Point", "coordinates": [ -74.21847925822928, 40.774544948577841 ] } },
{ "type": "Feature", "properties": { "id": 399, "osm_id": 158821893.0, "name": "Blissville", "type": "neighbourhood", "z_order": 2, "population": null }, "geometry": { "type": "Point", "coordinates": [ -73.937779882146287, 40.734721353134034 ] } },
{ "type": "Feature", "properties": { "id": 400, "osm_id": 158821797.0, "name": "Lynn Woodoaks", "type": "hamlet", "z_order": 4, "population": null }, "geometry": { "type": "Point", "coordinates": [ -74.333204127164834, 40.588992494911906 ] } },
{ "type": "Feature", "properties": { "id": 401, "osm_id": 158821527.0, "name": "MacArthur Manor", "type": "hamlet", "z_order": 4, "population": null }, "geometry": { "type": "Point", "coordinates": [ -74.369038020517081, 40.458439156204435 ] } },
{ "type": "Feature", "properties": { "id": 402, "osm_id": 158821928.0, "name": "Great Notch", "type": "hamlet", "z_order": 4, "population": null }, "geometry": { "type": "Point", "coordinates": [ -74.207645648377508, 40.874543568008818 ] } },
{ "type": "Feature", "properties": { "id": 403, "osm_id": 158821968.0, "name": "Heath Ridge", "type": "hamlet", "z_order": 4, "population": null }, "geometry": { "type": "Point", "coordinates": [ -73.773187718470226, 40.977598061698785 ] } },
{ "type": "Feature", "properties": { "id": 404, "osm_id": 158821562.0, "name": "South Glenwood Landing", "type": "hamlet", "z_order": 4, "population": null }, "geometry": { "type": "Point", "coordinates": [ -73.646795240317132, 40.822877852123412 ] } },
{ "type": "Feature", "properties": { "id": 405, "osm_id": 158822458.0, "name": "Monmouth Hills", "type": "hamlet", "z_order": 4, "population": null }, "geometry": { "type": "Point", "coordinates": [ -74.001805133356214, 40.403164528088638 ] } },
{ "type": "Feature", "properties": { "id": 406, "osm_id": 158822322.0, "name": "Bellerose Terrace", "type": "hamlet", "z_order": 4, "population": null }, "geometry": { "type": "Point", "coordinates": [ -73.725964914180963, 40.720658028351437 ] } },
{ "type": "Feature", "properties": { "id": 407, "osm_id": 158821270.0, "name": "Roselle Park", "type": "town", "z_order": 6, "population": 13124 }, "geometry": { "type": "Point", "coordinates": [ -74.264313348800755, 40.664546886298922 ] } },
{ "type": "Feature", "properties": { "id": 408, "osm_id": 158822647.0, "name": "North Valley Stream", "type": "hamlet", "z_order": 4, "population": null }, "geometry": { "type": "Point", "coordinates": [ -73.701797624217861, 40.685102749460697 ] } },
{ "type": "Feature", "properties": { "id": 409, "osm_id": 158822651.0, "name": "New Brunswick", "type": "city", "z_order": 7, "population": 50172 }, "geometry": { "type": "Point", "coordinates": [ -74.451817360982588, 40.486217370054703 ] } },